Time (ms),Stage,PosX (m),PosY (m),PosZ (m),VeloX (m/s),VeloY (m/s),VeloZ (m/s),AccelX (m/s^2),AccelY (m/s^2),AccelZ (m/s^2),Bar Altitude,Bar Pressure,Bar Temperature,GPS Longitude,GPS Latitude,GPS Altitude,GPS PosX,GPS PosY,GPS PosZ,GPS Heading Angle,GPS Satellites,IMU AccelX,IMU AccelY,IMU AccelZ,IMU AngVeloX,IMU AngVeloY,IMU AngVeloZ,IMU MagX,IMU MagY,IMU MagZ,IMU OrientationW,IMU OrientationX,IMU OrientationY,IMU OrientationZ,IMU Roll,IMU Pitch,IMU Yaw,Left Servo PWM,Right Servo PWM,Target Lat,Target Long,Goal Angle
760.48,Pre Launch,0,0,0,0,0,0,0,0,0,-2.5,101758.36,23.82,-758755520,390772512,-9.06,2.54,-0.57,5.04,0,24,0.11,0.05,9.8,0.75,-0.06,-0.19,46.69,14.38,12.75,0.04,-0.72,0.08,0.69,129.19,85.77,-61.03,0,0,0,0,0
760.74,Pre Launch,0,0,0,0,0,0,0,0,0,-2.3,101756,23.81,-758755520,390772512,-9.06,2.54,-0.57,5.04,0,24,0.08,0,9.81,-0.38,-0.06,0,46.69,14,12.25,0.04,-0.72,0.08,0.69,129.09,85.77,-61.04,0,0,0,0,0
761.01,Pre Launch,0,0,0,0,0,0,0,0,0,48.03,101150.35,20.01,-758755520,390772512,-9.15,2.54,-0.59,4.95,0,24,0.01,0.04,9.78,-0.38,-0.12,0,46.25,14.75,13.06,0.04,-0.72,0.08,0.69,129,85.77,-61.03,0,0,0,0,0
761.43,Pre Launch,0,0,0,0,0,0,0,0,0,-2.49,101758.26,23.82,-758755520,390772512,-9.15,2.54,-0.59,4.95,0,24,0.18,-0.07,9.79,-1.31,-0.06,0.12,46,14.38,13.5,0.04,-0.72,0.08,0.69,128.83,85.78,-61.08,0,0,0,0,0
761.69,Pre Launch,0,0,0,0,0,0,0,0,0,-2.45,101757.78,23.82,-758755520,390772512,-9.15,2.54,-0.59,4.95,0,24,0.11,0.09,9.77,0.31,0,-0.12,46.25,15.06,13.5,0.04,-0.72,0.08,0.69,128.79,85.78,-61.04,0,0,0,0,0
761.95,Pre Launch,0,0,0,0,0,0,0,0,0,-2.6,101759.61,23.83,-758755520,390772512,-9.15,2.54,-0.59,4.95,0,24,0.03,0.04,9.79,-0.25,0.06,0,46,15.06,13,0.04,-0.72,0.08,0.69,128.66,85.77,-61.09,0,0,0,0,0
762.22,Pre Launch,0,0,0,0,0,0,0,0,0,-2.39,101757.04,23.83,-758755520,390772512,-9.25,2.54,-0.6,4.86,0,24,0.1,0.02,9.79,0.62,0,0,47.38,14.75,11.88,0.04,-0.72,0.08,0.69,128.69,85.77,-61.01,0,0,0,0,0
762.59,Pre Launch,0,0,0,0,0,0,0,0,0,-2.79,101761.91,23.83,-758755520,390772512,-9.25,2.54,-0.6,4.86,0,24,0.1,0.03,9.81,-0.12,-0.06,0.06,46.25,13.56,13.38,0.04,-0.72,0.08,0.69,128.59,85.77,-61.03,0,0,0,0,0
762.86,Pre Launch,0,0,0,0,0,0,0,0,0,-2.68,101760.55,23.83,-758755520,390772512,-9.25,2.54,-0.6,4.86,0,24,0.02,0.01,9.8,-0.56,-0.12,0.06,47,14.38,13.38,0.04,-0.72,0.08,0.69,128.46,85.77,-61.08,0,0,0,0,0
763.12,Pre Launch,0,0,0,0,0,0,0,0,0,48.13,101149.25,20.02,-758755520,390772512,-9.25,2.54,-0.6,4.86,0,24,0.12,0.03,9.8,-1.12,-0.06,0,45.88,14.75,13.38,0.04,-0.72,0.08,0.69,128.43,85.77,-61.05,0,0,0,0,0
763.38,Pre Launch,0,0,0,0,0,0,0,0,0,-2.54,101758.86,23.83,-758755520,390772480,-9.36,2.55,-0.61,4.74,0,25,0.11,0.04,9.81,0.25,-0.12,0,46.38,14.38,14.5,0.04,-0.72,0.08,0.69,128.41,85.77,-61.03,0,0,0,0,0
763.81,Pre Launch,0,0,0,0,0,0,0,0,0,-2.71,101760.91,23.84,-758755520,390772480,-9.36,2.55,-0.61,4.74,0,25,0.01,0.04,9.77,1.5,-0.12,-0.12,46.25,12.88,13,0.03,-0.72,0.08,0.69,128.14,85.77,-61.06,0,0,0,0,0
764.07,Pre Launch,0,0,0,0,0,0,0,0,0,47.54,101156.27,20.11,-758755520,390772480,-9.36,2.55,-0.61,4.74,0,25,0.05,-0.03,9.8,-4.19,-0.12,0.38,46.69,14.38,12.69,0.03,-0.72,0.08,0.69,128.02,85.77,-61.09,0,0,0,0,0
764.37,Pre Launch,0,0,0,0,0,0,0,0,0,-2.44,101757.64,23.84,-758755520,390772480,-9.36,2.55,-0.61,4.74,0,25,0.22,-0.03,9.78,-3.31,-0.62,0.19,47,14.75,11.88,0.03,-0.72,0.08,0.69,128.69,85.77,-60.31,0,0,0,0,0
764.63,Powered Ascent,0,0,0,0,0,0,0,0,0,-8.84,101834.87,23.84,-758755520,390772480,-9.44,2.47,-0.64,4.66,0,23,-21.16,-19.15,39.19,-281.38,61.75,22.12,46.25,12.06,15.69,-0.12,-0.72,-0.07,0.68,124.49,84.65,-39.66,0,0,0,0,0
765.05,Coasting,0,0,0,0,0,0,0,0,0,106.45,100451.12,20.43,-758755520,390772480,-9.44,2.47,-0.64,4.66,0,23,-12.88,13.28,37.03,-1276.44,-0.69,37.31,47.25,23.69,11,0.11,0.74,0.05,-0.66,138.26,81.28,-29.26,0,0,0,0,0
765.36,Coasting,0,0,0,0,0,0,0,0,0,89.61,100652.27,23.82,-758755520,390772480,-9.44,2.47,-0.64,4.66,0,23,-4.17,9.44,-27.99,-1348.31,26.31,56.81,46.25,13.75,18.69,-0.42,-0.64,-0.3,0.57,86.64,79.09,-32.07,0,0,0,0,0
765.37,Coasting,0,0,0,0,0,0,0,0,0,89.61,100652.27,23.82,-758755520,390772480,-9.44,2.47,-0.64,4.66,0,23,-7.54,8.18,-29.65,-1346.56,18.94,63.25,46.25,13.75,18.69,-0.49,-0.59,-0.36,0.53,74.87,78.55,-30.88,0,0,0,0,0
765.38,Coasting,0,0,0,0,0,0,0,0,0,89.61,100652.27,23.82,-758755520,390772480,-9.44,2.47,-0.64,4.66,0,23,-10.19,5.45,-28.33,-1339,12.5,53.44,46.25,13.75,18.69,-0.56,-0.53,-0.41,0.49,63.4,78.1,-29.4,0,0,0,0,0
765.39,Coasting,0,0,0,0,0,0,0,0,0,89.61,100652.27,23.82,-758755520,390772480,-9.44,2.47,-0.64,4.66,0,23,-11.44,2.25,-33.5,-1333.94,15.12,50.31,46.25,13.75,18.69,-0.61,-0.47,-0.47,0.44,52.34,77.77,-27.58,0,0,0,0,0
765.4,Coasting,0,0,0,0,0,0,0,0,0,89.61,100652.27,23.82,-758755520,390772480,-9.44,2.47,-0.64,4.66,0,23,-10.46,-0.48,-32.3,-1333.94,15.12,50.31,46.25,13.75,18.69,-0.66,-0.4,-0.51,0.38,41.63,77.55,-25.43,0,0,0,0,0
765.41,Coasting,0,0,0,0,0,0,0,0,0,89.61,100652.27,23.82,-758755520,390772480,-9.44,2.47,-0.64,4.66,0,23,-8.84,-3,-32.82,-1327.38,19.31,49.69,46.25,-13.38,18,-0.66,-0.4,-0.51,0.38,41.63,77.55,-25.43,0,0,0,0,0
765.42,Coasting,0,0,0,0,0,0,0,0,0,89.61,100652.27,23.82,-758755520,390772480,-9.44,2.47,-0.64,4.66,0,23,-9.33,-7.28,-30.12,-1326.25,22.25,50.56,46.25,-13.38,18,-0.7,-0.33,-0.55,0.31,31.18,77.43,-23.04,0,0,0,0,0
765.43,Coasting,0,0,0,0,0,0,0,0,0,95.94,100576.66,23.81,-758755520,390772480,-9.44,2.47,-0.64,4.66,0,23,-6.58,-11.74,-31.75,-1324.56,23.25,52.31,46.25,-13.38,18,-0.73,-0.25,-0.58,0.25,20.88,77.41,-20.52,0,0,0,0,0
765.44,Coasting,0,0,0,0,0,0,0,0,0,95.94,100576.66,23.81,-758755520,390772480,-9.44,2.47,-0.64,4.66,0,23,-4.8,-14.23,-31.24,-1323.75,20.06,53.69,46.25,-13.38,18,-0.77,-0.09,-0.62,0.11,0.18,77.59,-15.59,0,0,0,0,0
765.45,Coasting,0,0,0,0,0,0,0,0,0,95.94,100576.66,23.81,-758755520,390772480,-9.44,2.47,-0.64,4.66,0,23,-2.43,-16.41,-29.37,-1322.69,18.31,51.88,46.25,-13.38,18,-0.77,-0.09,-0.62,0.11,0.18,77.59,-15.59,0,0,0,0,0
765.46,Coasting,0,0,0,0,0,0,0,0,0,95.94,100576.66,23.81,-758755520,390772480,-9.44,2.47,-0.64,4.66,0,23,0.85,-16.48,-29.39,-1320.06,14.69,49.38,40.38,-27.06,-7.25,-0.78,0,-0.63,0.03,-10.45,77.77,-13.45,0,0,0,0,0
765.47,Coasting,0,0,0,0,0,0,0,0,0,95.94,100576.66,23.81,-758755520,390772480,-9.44,2.47,-0.64,4.66,0,23,3.72,-16.88,-28.42,-1318.5,14.75,46.19,40.38,-27.06,-7.25,-0.77,0.08,-0.63,-0.04,-21.35,78.03,-11.59,0,0,0,0,0
765.48,Coasting,0,0,0,0,0,0,0,0,0,95.94,100576.66,23.81,-758755520,390772480,-9.44,2.47,-0.64,4.66,0,23,4,-16.71,-29.37,-1315.94,16.25,44.19,40.38,-27.06,-7.25,-0.76,0.16,-0.62,-0.11,-32.55,78.36,-10.09,0,0,0,0,0
765.48,Coasting,0,0,0,0,0,0,0,0,0,95.94,100576.66,23.81,-758755520,390772480,-9.44,2.47,-0.64,4.66,0,23,6.16,-16.93,-29.78,-1313.19,17.31,43.75,40.38,-27.06,-7.25,-0.73,0.24,-0.61,-0.18,-44.08,78.76,-8.93,0,0,0,0,0
765.49,Coasting,0,0,0,0,0,0,0,0,0,106.51,100450.38,23.81,-758755520,390772480,-9.44,2.47,-0.64,4.66,0,23,9.4,-16.37,-29.25,-1309.31,19.75,45.75,40.38,-27.06,-7.25,-0.7,0.32,-0.59,-0.25,-55.98,79.21,-8.2,0,0,0,0,0
765.5,Coasting,0,0,0,0,0,0,0,0,0,106.51,100450.38,23.81,-758755520,390772480,-9.44,2.47,-0.64,4.66,0,23,12.44,-14,-27.27,-1309.31,19.75,45.75,40.38,-27.06,-7.25,-0.66,0.39,-0.56,-0.31,-68.47,79.72,-8.07,0,0,0,0,0
765.51,Coasting,0,0,0,0,0,0,0,0,0,106.51,100450.38,23.81,-758755520,390772480,-9.44,2.47,-0.64,4.66,0,23,15.33,-12.06,-27.77,-1308,21.94,47.88,41.19,-10.06,-23.25,-0.66,0.39,-0.56,-0.31,-68.47,79.72,-8.07,0,0,0,0,0
765.52,Coasting,0,0,0,0,0,0,0,0,0,106.51,100450.38,23.81,-758755520,390772480,-9.44,2.47,-0.64,4.66,0,23,15.83,-9,-25.69,-1307.5,22.56,49.19,41.19,-10.06,-23.25,-0.61,0.46,-0.52,-0.38,-81.58,80.23,-8.59,0,0,0,0,0
765.53,Coasting,0,0,0,0,0,0,0,0,0,106.51,100450.38,23.81,-758755520,390772480,-9.44,2.47,-0.64,4.66,0,23,19.81,-6.68,-28.63,-1305.44,21.31,54.31,41.19,-10.06,-23.25,-0.49,0.58,-0.44,-0.49,-109.86,81.22,-11.8,0,0,0,0,0
765.54,Coasting,0,0,0,0,0,0,0,0,0,106.51,100450.38,23.81,-758755520,390772480,-9.44,2.47,-0.64,4.66,0,23,20.17,-2.33,-26.42,-1298.75,22.62,54.31,41.19,-10.06,-23.25,-0.42,0.63,-0.38,-0.53,-124.87,81.57,-14.39,0,0,0,0,0
765.55,Coasting,0,0,0,0,0,0,0,0,0,119.38,100450.38,23.81,-758755520,390772480,-9.44,2.47,-0.64,4.66,0,23,20.35,1.31,-28.12,-1291.25,19.25,50.25,41.19,-10.06,-23.25,-0.42,0.63,-0.38,-0.53,-124.87,81.57,-14.39,0,0,0,0,0
765.56,Coasting,0,0,0,0,0,0,0,0,0,119.38,100296.88,23.81,-758755520,390772480,-9.44,2.47,-0.64,4.66,0,23,18.59,4.44,-28.45,-1287.25,14.69,43.31,41.88,16.75,-18,-0.35,0.67,-0.33,-0.57,-139.93,81.78,-17.07,0,0,0,0,0
765.57,Coasting,0,0,0,0,0,0,0,0,0,119.38,100296.88,23.81,-758755520,390772480,-9.44,2.47,-0.64,4.66,0,23,16.67,5.32,-26.18,-1286.12,12.06,38.06,41.88,16.75,-18,-0.27,0.7,-0.27,-0.6,-154.93,81.88,-19.69,0,0,0,0,0
765.58,Coasting,0,0,0,0,0,0,0,0,0,119.38,100296.88,23.81,-758755520,390772480,-9.44,2.47,-0.64,4.66,0,23,15.23,7.68,-28.32,-1284.31,14.62,38.44,41.88,16.75,-18,-0.19,0.73,-0.2,-0.63,-170.04,81.86,-22.46,0,0,0,0,0
765.59,Coasting,0,0,0,0,0,0,0,0,0,119.38,100296.88,23.81,-758755520,390772480,-9.44,2.47,-0.64,4.66,0,23,14.62,7.03,-25.83,-1280.25,18.69,41.88,41.88,16.75,-18,-0.11,0.74,-0.14,-0.65,174.75,81.69,-25.35,0,0,0,0,0
765.59,Coasting,0,0,0,0,0,0,0,0,0,119.38,100296.88,23.81,-758755520,390772480,-9.44,2.47,-0.64,4.66,0,23,12.58,8.99,-26.29,-1278.5,21.69,47.19,41.88,16.75,-18,-0.03,0.75,-0.07,-0.66,159.74,81.39,-28.06,0,0,0,0,0
765.6,Coasting,0,0,0,0,0,0,0,0,0,119.38,100296.88,23.81,-758755520,390772480,-9.44,2.47,-0.64,4.66,0,23,10.31,11.12,-28.46,-1278.5,21.69,47.19,41.88,16.75,-18,0.06,0.75,0,-0.66,145.38,80.98,-30.14,0,0,0,0,0
765.61,Coasting,0,0,0,0,0,0,0,0,0,119.38,100296.88,23.81,-758755520,390772480,-9.44,2.47,-0.64,4.66,0,23,6.59,13.23,-30.16,-1276.94,23,49.5,43,22.19,9.5,0.06,0.75,0,-0.66,145.38,80.98,-30.14,0,0,0,0,0
765.62,Coasting,0,0,0,0,0,0,0,0,0,128.67,100186.14,23.81,-758755520,390772480,-9.44,2.47,-0.64,4.66,0,23,3.09,13.22,-30.53,-1271.69,20.88,48.62,43,22.19,9.5,0.14,0.74,0.07,-0.65,131.78,80.51,-31.49,0,0,0,0,0
765.63,Coasting,0,0,0,0,0,0,0,0,0,128.67,100186.14,23.81,-758755520,390772480,-9.44,2.47,-0.64,4.66,0,23,-0.39,11.5,-30.61,-1265.06,18.25,44.06,43,22.19,9.5,0.3,0.7,0.2,-0.62,106.66,79.64,-32.24,0,0,0,0,0
765.64,Coasting,0,0,0,0,0,0,0,0,0,128.67,100186.14,23.81,-758755712,390772288,-9.38,0.71,-2.89,4.73,221.33,18,-2.15,10.1,-29.48,-1263.62,14.88,41.62,43,22.19,9.5,0.37,0.66,0.26,-0.59,94.79,79.22,-31.93,0,0,0,0,0
765.76,Coasting,0,0,0,0,0,0,0,0,0,146.99,99968.18,23.81,-758755712,390772288,-9.38,0.71,-2.89,4.73,221.33,18,3.7,-15.38,-26.31,-1226.69,13.69,43.81,41.25,-26,-14.25,0.76,-0.13,0.63,0.09,-26.42,78.39,-8.5,0,0,0,0,0
765.77,Coasting,0,0,0,0,0,0,0,0,0,146.99,99968.18,23.81,-758755712,390772288,-9.38,0.71,-2.89,4.73,221.33,18,5.58,-14.75,-26.02,-1218.5,13.69,29.88,41.25,-26,-14.25,0.74,-0.21,0.62,0.15,-37.31,78.66,-7.62,0,0,0,0,0
765.78,Coasting,0,0,0,0,0,0,0,0,0,146.99,99968.18,23.81,-758755712,390772288,-9.38,0.71,-2.89,4.73,221.33,18,8.18,-13.73,-25.61,-1215.88,17.56,29.94,41.25,-26,-14.25,0.72,-0.28,0.6,0.22,-48.56,78.98,-7.13,0,0,0,0,0
765.79,Coasting,0,0,0,0,0,0,0,0,0,146.99,99968.18,23.81,-758755712,390772288,-9.38,0.71,-2.89,4.73,221.33,18,9.62,-12.33,-24.01,-1217.25,21.06,34.62,41.25,-26,-14.25,0.68,-0.35,0.58,0.28,-60.11,79.37,-6.94,0,0,0,0,0
765.8,Coasting,0,0,0,0,0,0,0,0,0,146.99,99968.18,23.81,-758755712,390772288,-9.38,0.71,-2.89,4.73,221.33,18,11.06,-9.63,-22.32,-1217.25,21.06,34.62,41.25,-26,-14.25,0.68,-0.35,0.58,0.28,-60.11,79.37,-6.94,0,0,0,0,0
765.81,Coasting,0,0,0,0,0,0,0,0,0,157.7,99968.18,23.81,-758755712,390772288,-9.38,0.71,-2.89,4.73,221.33,18,12.17,-8,-22.25,-1217.69,23.56,44,41,-5.75,-23.75,0.64,-0.42,0.55,0.34,-72.07,79.85,-7.16,0,0,0,0,0
765.82,Coasting,0,0,0,0,0,0,0,0,0,157.8,99839.7,23.81,-758755712,390772288,-9.38,0.71,-2.89,4.73,221.33,18,16.12,-6.15,-24.15,-1211.69,22.19,54,41,-5.75,-23.75,0.59,-0.48,0.51,0.39,-84.34,80.4,-7.75,0,0,0,0,0
765.83,Coasting,0,0,0,0,0,0,0,0,0,157.8,99839.7,23.81,-758755712,390772288,-9.38,0.71,-2.89,4.73,221.33,18,17.41,-3.74,-26.13,-1210.38,14.5,56.5,41,-5.75,-23.75,0.48,-0.59,0.43,0.49,-109.73,81.42,-9.86,0,0,0,0,0
765.84,Coasting,0,0,0,0,0,0,0,0,0,157.8,99839.7,23.81,-758755712,390772288,-9.38,0.71,-2.89,4.73,221.33,18,17.33,-0.94,-23.88,-1207,7.19,52.38,41,-5.75,-23.75,0.42,-0.63,0.38,0.54,-122.91,81.8,-11.42,0,0,0,0,0
765.85,Coasting,0,0,0,0,0,0,0,0,0,157.8,99839.7,23.81,-758755712,390772288,-9.38,0.71,-2.89,4.73,221.33,18,16.51,0.79,-23.42,-1206.88,3.38,45.94,41,-5.75,-23.75,0.42,-0.63,0.38,0.54,-122.91,81.8,-11.42,0,0,0,0,0
,,,,,,,,,,,,,,,,,,,,,,,,,,,,,,,,,,,,,,,,,,
765.86,Coasting,0,0,0,0,0,0,0,0,0,157.8,99839.7,23.81,-758755712,390772288,-9.38,0.71,-2.89,4.73,221.33,18,16.47,2.76,-23.42,-1206.62,4.81,40.88,42.38,17.69,-16.19,0.35,-0.67,0.32,0.57,-136.58,82.07,-13.46,0,0,0,0,0
765.87,Coasting,0,0,0,0,0,0,0,0,0,157.8,99839.7,23.81,-758755712,390772288,-9.38,0.71,-2.89,4.73,221.33,18,14.58,5.24,-22.99,-1203.62,10.19,37.56,42.38,17.69,-16.19,0.28,-0.7,0.27,0.6,-150.71,82.21,-16.01,0,0,0,0,0
765.88,Coasting,0,0,0,0,0,0,0,0,0,164.55,99839.7,23.81,-758755712,390772288,-9.38,0.71,-2.89,4.73,221.33,18,12.75,7.16,-22.52,-1196.88,15.75,35.19,42.38,17.69,-16.19,0.2,-0.72,0.21,0.63,-164.97,82.2,-18.74,0,0,0,0,0
765.89,Coasting,0,0,0,0,0,0,0,0,0,164.55,99759.58,23.81,-758755712,390772288,-9.38,0.71,-2.89,4.73,221.33,18,12.86,6.82,-23.63,-1189.62,19.69,35.62,42.38,17.69,-16.19,0.13,-0.74,0.15,0.64,-179.1,82.06,-21.43,0,0,0,0,0
765.89,Coasting,0,0,0,0,0,0,0,0,0,164.55,99759.58,23.81,-758755712,390772288,-9.38,0.71,-2.89,4.73,221.33,18,11.13,8.42,-23.99,-1188.75,21.75,36.81,42.38,17.69,-16.19,0.05,-0.75,0.08,0.65,167.09,81.81,-23.79,0,0,0,0,0
765.9,Coasting,0,0,0,0,0,0,0,0,0,164.55,99759.58,23.81,-758755712,390772288,-9.38,0.71,-2.89,4.73,221.33,18,8.51,9.75,-24.65,-1188.75,21.75,36.81,42.38,17.69,-16.19,-0.03,-0.75,0.02,0.66,153.7,81.47,-25.76,0,0,0,0,0
765.91,Coasting,0,0,0,0,0,0,0,0,0,164.55,99759.58,23.81,-758755712,390772288,-9.38,0.71,-2.89,4.73,221.33,18,5.9,10.22,-24.29,-1186.81,22.81,39.81,42.75,23.25,9.38,-0.03,-0.75,0.02,0.66,153.7,81.47,-25.76,0,0,0,0,0
765.92,Coasting,0,0,0,0,0,0,0,0,0,164.55,99759.58,23.81,-758755712,390772288,-9.38,0.71,-2.89,4.73,221.33,18,3.71,10.55,-23.89,-1183.19,22.69,44.19,42.75,23.25,9.38,-0.1,-0.75,-0.04,0.66,140.74,81.06,-27.32,0,0,0,0,0
765.93,Coasting,0,0,0,0,0,0,0,0,0,164.55,99759.58,23.81,-758755712,390772288,-9.38,0.71,-2.89,4.73,221.33,18,1.3,10.47,-24.67,-1181.19,19.62,47.56,42.75,23.25,9.38,-0.25,-0.71,-0.17,0.63,116.2,80.12,-29.12,0,0,0,0,0
765.94,Coasting,0,0,0,0,0,0,0,0,0,173.54,99759.58,23.81,-758755712,390772288,-9.38,0.71,-2.89,4.73,221.33,18,-1.47,9.31,-25.4,-1178,17.31,47.69,42.75,23.25,9.38,-0.33,-0.69,-0.22,0.61,104.73,79.66,-29.28,0,0,0,0,0
765.95,Coasting,0,0,0,0,0,0,0,0,0,173.57,99652.59,23.8,-758755712,390772288,-9.38,0.71,-2.89,4.73,221.33,18,-3.14,8.33,-25.46,-1173.25,14,45.38,42.75,23.25,9.38,-0.33,-0.69,-0.22,0.61,104.73,79.66,-29.28,0,0,0,0,0
765.96,Coasting,0,0,0,0,0,0,0,0,0,173.57,99652.59,23.8,-758755712,390772288,-9.38,0.71,-2.89,4.73,221.33,18,-5.23,7.47,-25.97,-1170.88,8.62,40.75,42.75,6.5,23.06,-0.39,-0.65,-0.28,0.58,93.54,79.26,-29.17,0,0,0,0,0
765.97,Coasting,0,0,0,0,0,0,0,0,0,173.57,99652.59,23.8,-758755712,390772288,-9.38,0.71,-2.89,4.73,221.33,18,-5.83,5.54,-25.63,-1168.5,8.5,37.06,42.75,6.5,23.06,-0.46,-0.61,-0.34,0.55,82.76,78.91,-28.67,0,0,0,0,0
765.98,Coasting,0,0,0,0,0,0,0,0,0,173.57,99652.59,23.8,-758755712,390772288,-9.38,0.71,-2.89,4.73,221.33,18,-7.33,3.82,-25.12,-1166.12,10.25,32.81,42.75,6.5,23.06,-0.52,-0.57,-0.39,0.51,72.33,78.62,-27.82,0,0,0,0,0
765.99,Coasting,0,0,0,0,0,0,0,0,0,173.57,99652.59,23.8,-758755712,390772288,-9.38,0.71,-2.89,4.73,221.33,18,-5.47,2.85,-24.64,-1165.31,16,30.81,42.75,6.5,23.06,-0.57,-0.51,-0.43,0.47,62.36,78.41,-26.53,0,0,0,0,0
765.99,Coasting,0,0,0,0,0,0,0,0,0,173.57,99652.59,23.8,-758755712,390772288,-9.38,0.71,-2.89,4.73,221.33,18,-6.42,0.94,-22.65,-1163.38,19.5,32.88,42.75,6.5,23.06,-0.62,-0.46,-0.48,0.42,52.71,78.24,-24.92,0,0,0,0,0
766,Coasting,0,0,0,0,0,0,0,0,0,173.57,99652.59,23.8,-758755712,390772288,-9.38,0.71,-2.89,4.73,221.33,18,-6.68,-1.05,-22.57,-1163.38,19.5,32.88,42.75,6.5,23.06,-0.66,-0.4,-0.52,0.37,43.41,78.08,-23,0,0,0,0,0
766.01,Coasting,0,0,0,0,0,0,0,0,0,220.42,99098.19,20.99,-758755712,390772288,-9.38,0.71,-2.89,4.73,221.33,18,-5.26,-2.56,-22.62,-1159.25,19.31,39.38,41.38,-18.06,17,-0.66,-0.4,-0.52,0.37,43.41,78.08,-23,0,0,0,0,0
766.02,Coasting,0,0,0,0,0,0,0,0,0,220.42,99098.19,20.99,-758755712,390772288,-9.38,0.71,-2.89,4.73,221.33,18,-5.28,-5.02,-22.21,-1156.06,18.31,47.88,41.38,-18.06,17,-0.7,-0.33,-0.55,0.32,34.49,77.93,-20.72,0,0,0,0,0
766.03,Coasting,0,0,0,0,0,0,0,0,0,220.42,99098.19,20.99,-758755712,390772288,-9.38,0.71,-2.89,4.73,221.33,18,-4.51,-8.48,-25.41,-1150.69,15.56,53.62,41.38,-18.06,17,-0.75,-0.2,-0.6,0.2,17.09,77.69,-15.84,0,0,0,0,0
766.04,Coasting,0,0,0,0,0,0,0,0,0,220.42,99098.19,20.99,-758755712,390772288,-9.38,0.71,-2.89,4.73,221.33,18,-2.69,-10.53,-26.28,-1146.56,8.38,53.88,41.38,-18.06,17,-0.77,-0.13,-0.61,0.14,8.28,77.6,-13.55,0,0,0,0,0
766.05,Coasting,0,0,0,0,0,0,0,0,0,220.42,99098.19,20.99,-758755712,390772288,-9.38,0.71,-2.89,4.73,221.33,18,-1.28,-10.72,-24.51,-1144.56,2,51.62,41.38,-18.06,17,-0.77,-0.13,-0.61,0.14,8.28,77.6,-13.55,0,0,0,0,0
766.06,Coasting,0,0,0,0,0,0,0,0,0,220.42,99098.19,20.99,-758755712,390772288,-9.38,0.71,-2.89,4.73,221.33,18,-0.54,-12.43,-23.25,-1143.31,-1.31,47.62,41.06,-26.75,-5.56,-0.78,-0.06,-0.62,0.07,-0.68,77.55,-11.43,0,0,0,0,0
766.07,Coasting,0,0,0,0,0,0,0,0,0,220.42,99098.19,20.99,-758755712,390772288,-9.38,0.71,-2.89,4.73,221.33,18,1.3,-11.95,-23.07,-1140,0.56,44,41.06,-26.75,-5.56,-0.78,0.01,-0.63,0.01,-9.76,77.59,-9.46,0,0,0,0,0
766.08,Coasting,0,0,0,0,0,0,0,0,0,225.07,99043.35,20.84,-758755712,390772288,-9.38,0.71,-2.89,4.73,221.33,18,1.95,-12.35,-22.05,-1140.38,4.31,40.5,41.06,-26.75,-5.56,-0.77,0.09,-0.63,-0.05,-19.07,77.73,-7.73,0,0,0,0,0
766.09,Coasting,0,0,0,0,0,0,0,0,0,225.07,99043.35,20.84,-758755712,390772288,-9.38,0.71,-2.89,4.73,221.33,18,4.57,-11.99,-22.38,-1139.25,9.88,38.88,41.06,-26.75,-5.56,-0.76,0.16,-0.62,-0.11,-28.65,77.97,-6.28,0,0,0,0,0
766.1,Coasting,0,0,0,0,0,0,0,0,0,225.07,99043.35,20.84,-758755712,390772288,-9.38,0.71,-2.89,4.73,221.33,18,3.56,-9.56,-21.27,-1132.06,15.69,42.25,41.06,-26.75,-5.56,-0.74,0.23,-0.61,-0.18,-38.36,78.32,-5.04,0,0,0,0,0
766.1,Coasting,0,0,0,0,0,0,0,0,0,225.07,99043.35,20.84,-758755712,390772288,-9.38,0.71,-2.89,4.73,221.33,18,5.14,-9.46,-20.99,-1132.06,15.69,42.25,39.88,-13.56,-24,-0.71,0.3,-0.59,-0.23,-48.28,78.78,-4.08,0,0,0,0,0
766.11,Coasting,0,0,0,0,0,0,0,0,0,225.07,99043.35,20.84,-758755712,390772288,-9.38,0.71,-2.89,4.73,221.33,18,8.47,-9.5,-20.63,-1125.94,21.5,47.62,39.88,-13.56,-24,-0.71,0.3,-0.59,-0.23,-48.28,78.78,-4.08,0,0,0,0,0
766.12,Coasting,0,0,0,0,0,0,0,0,0,225.07,99043.35,20.84,-758755712,390772288,-9.38,0.71,-2.89,4.73,221.33,18,10.33,-8.99,-20.37,-1124.94,23.5,50.31,39.88,-13.56,-24,-0.64,0.42,-0.54,-0.35,-69.31,79.83,-3.38,0,0,0,0,0
766.13,Coasting,0,0,0,0,0,0,0,0,0,225.07,99043.35,20.84,-758755712,390772288,-9.38,0.71,-2.89,4.73,221.33,18,12.28,-7.94,-19.06,-1124.94,21.75,49.56,39.88,-13.56,-24,-0.6,0.48,-0.51,-0.4,-80.51,80.33,-3.76,0,0,0,0,0
766.14,Coasting,0,0,0,0,0,0,0,0,0,194.55,99404,23.8,-758755712,390772288,-9.38,0.71,-2.89,4.73,221.33,18,15.12,-6.08,-19.83,-1117.25,16.81,46.31,39.88,-13.56,-24,-0.55,0.53,-0.47,-0.45,-92.08,80.79,-4.55,0,0,0,0,0
766.15,Coasting,0,0,0,0,0,0,0,0,0,194.55,99404,23.8,-758755712,390772288,-9.38,0.71,-2.89,4.73,221.33,18,15.77,-3.93,-19.76,-1117.25,16.81,46.31,39.88,-13.56,-24,-0.55,0.53,-0.47,-0.45,-92.08,80.79,-4.55,0,0,0,0,0
766.16,Coasting,0,0,0,0,0,0,0,0,0,194.55,99404,23.8,-758755712,390772288,-9.38,0.71,-2.89,4.73,221.33,18,15.49,-2.83,-19.51,-1115.25,15.44,38.88,41.06,9.5,-25.19,-0.49,0.58,-0.43,-0.49,-104.1,81.14,-5.83,0,0,0,0,0
766.17,Coasting,0,0,0,0,0,0,0,0,0,194.55,99404,23.8,-758755712,390772288,-9.38,0.71,-2.89,4.73,221.33,18,15.42,-0.29,-19.08,-1111.19,18,33.19,41.06,9.5,-25.19,-0.43,0.62,-0.38,-0.53,-116.64,81.38,-7.67,0,0,0,0,0
766.18,Coasting,0,0,0,0,0,0,0,0,0,194.55,99404,23.8,-758755712,390772288,-9.38,0.71,-2.89,4.73,221.33,18,12.58,0.88,-19.43,-1110.06,22.12,27.56,41.06,9.5,-25.19,-0.37,0.66,-0.34,-0.56,-129.49,81.48,-9.83,0,0,0,0,0
766.19,Coasting,0,0,0,0,0,0,0,0,0,194.55,99404,23.8,-758755712,390772288,-9.38,0.71,-2.89,4.73,221.33,18,11.52,2.3,-18.56,-1108.56,26.06,27.62,41.06,9.5,-25.19,-0.31,0.69,-0.28,-0.59,-142.64,81.49,-12.3,0,0,0,0,0
766.2,Coasting,0,0,0,0,0,0,0,0,0,194.55,99404,23.8,-758755712,390772288,-9.38,0.71,-2.89,4.73,221.33,18,11.19,2.59,-19.48,-1105.69,28.06,34.38,41.06,9.5,-25.19,-0.24,0.72,-0.23,-0.61,-156.12,81.43,-15.14,0,0,0,0,0
766.21,Coasting,0,0,0,0,0,0,0,0,0,204.14,99291.41,23.79,-758755712,390772288,-9.38,0.71,-2.89,4.73,221.33,18,10.46,3.91,-19.67,-1105.69,28.06,34.38,42.5,24.5,-1.38,-0.17,0.74,-0.18,-0.63,-169.9,81.29,-18.31,0,0,0,0,0
766.21,Coasting,0,0,0,0,0,0,0,0,0,204.14,99290.61,23.79,-758755712,390772288,-9.38,0.71,-2.89,4.73,221.33,18,9.87,6.32,-19.84,-1102.81,27.62,43.25,42.5,24.5,-1.38,-0.17,0.74,-0.18,-0.63,-169.9,81.29,-18.31,0,0,0,0,0
766.22,Coasting,0,0,0,0,0,0,0,0,0,204.14,99290.61,23.79,-758755712,390772288,-9.38,0.71,-2.89,4.73,221.33,18,8.26,8.76,-20.92,-1098.38,24.5,47.94,42.5,24.5,-1.38,-0.03,0.76,-0.06,-0.65,163.19,80.83,-24.13,0,0,0,0,0
766.23,Coasting,0,0,0,0,0,0,0,0,0,204.14,99290.61,23.79,-758755712,390772288,-9.38,0.71,-2.89,4.73,221.33,18,4.94,9.3,-21.8,-1095.19,18.5,48.06,42.5,24.5,-1.38,0.05,0.76,-0.01,-0.65,150.41,80.58,-26.36,0,0,0,0,0
766.24,Coasting,0,0,0,0,0,0,0,0,0,204.14,99290.61,23.79,-758755712,390772288,-9.38,0.71,-2.89,4.73,221.33,18,2.97,10.25,-21.3,-1094.56,1.62,38.19,42.5,24.5,-1.38,0.12,0.75,0.05,-0.65,138.1,80.35,-28.13,0,0,0,0,0
766.25,Coasting,0,0,0,0,0,0,0,0,0,204.14,99290.61,23.79,-758755712,390772288,-9.38,0.71,-2.89,4.73,221.33,18,3.3,9.59,-21.4,-1094.56,1.62,38.19,42.5,24.5,-1.38,0.19,0.73,0.11,-0.64,126.33,80.12,-29.38,0,0,0,0,0
766.26,Coasting,0,0,0,0,0,0,0,0,0,204.14,99290.61,23.79,-758755712,390772288,-9.38,0.71,-2.89,4.73,221.33,18,1.77,8.68,-20.98,-1092.06,0.38,32.5,42.19,17.25,16.5,0.19,0.73,0.11,-0.64,126.33,80.12,-29.38,0,0,0,0,0
766.27,Coasting,0,0,0,0,0,0,0,0,0,212.03,99290.61,23.8,-758755712,390772288,-9.38,0.71,-2.89,4.73,221.33,18,1.1,7.64,-20.98,-1089.06,3.12,29.88,42.19,17.25,16.5,0.26,0.71,0.16,-0.63,115.15,79.85,-30.06,0,0,0,0,0
766.28,Coasting,0,0,0,0,0,0,0,0,0,212.03,99197.34,23.8,-758755712,390772288,-9.38,0.71,-2.89,4.73,221.33,18,-1.36,7.32,-21.31,-1088.25,7.38,31.06,42.19,17.25,16.5,0.32,0.69,0.22,-0.61,104.44,79.55,-30.27,0,0,0,0,0
766.29,Coasting,0,0,0,0,0,0,0,0,0,212.03,99197.34,23.8,-758755712,390772288,-9.38,0.71,-2.89,4.73,221.33,18,-2.67,5.9,-20.13,-1086.56,11.12,33.62,42.19,17.25,16.5,0.39,0.66,0.27,-0.59,94.25,79.21,-29.97,0,0,0,0,0
766.3,Coasting,0,0,0,0,0,0,0,0,0,212.03,99197.34,23.8,-758755712,390772288,-9.38,0.71,-2.89,4.73,221.33,18,-3.47,4.87,-22.02,-1088.25,11.38,37.75,42.19,17.25,16.5,0.45,0.62,0.32,-0.56,84.33,78.84,-29.37,0,0,0,0,0
766.31,Coasting,0,0,0,0,0,0,0,0,0,212.03,99197.34,23.8,-758755712,390772288,-9.38,0.71,-2.89,4.73,221.33,18,-3.47,4.87,-22.02,-1091.56,9.81,43.69,42.5,-4.38,24.5,0.5,0.58,0.37,-0.52,74.65,78.45,-28.5,0,0,0,0,0
766.31,Coasting,0,0,0,0,0,0,0,0,0,212.03,99197.34,23.8,-758755712,390772288,-9.38,0.71,-2.89,4.73,221.33,18,-4.44,5.13,-22.41,-1091.56,9.81,43.69,42.5,-4.38,24.5,0.5,0.58,0.37,-0.52,74.65,78.45,-28.5,0,0,0,0,0
766.32,Coasting,0,0,0,0,0,0,0,0,0,212.03,99197.34,23.8,-758755712,390772288,-9.38,0.71,-2.89,4.73,221.33,18,-6.03,2.95,-22.54,-1084.19,16.44,47.12,42.5,-4.38,24.5,0.6,0.48,0.46,-0.44,57.23,77.78,-25.02,0,0,0,0,0
766.33,Coasting,0,0,0,0,0,0,0,0,0,212.03,99197.34,23.8,-758755712,390772288,-9.38,0.71,-2.89,4.73,221.33,18,-6.04,-0.71,-21.04,-1073.75,22.69,47.38,42.5,-4.38,24.5,0.64,0.43,0.49,-0.4,49,77.55,-22.91,0,0,0,0,0
766.34,Coasting,0,0,0,0,0,0,0,0,0,221.93,99080.44,23.79,-758755712,390772288,-9.38,0.71,-2.89,4.73,221.33,18,-5.53,-3.32,-20.3,-1057.31,20.38,49.62,42.5,-4.38,24.5,0.68,0.37,0.53,-0.35,40.94,77.36,-20.72,0,0,0,0,0
766.35,Coasting,0,0,0,0,0,0,0,0,0,221.93,99080.44,23.79,-758755712,390772288,-9.38,0.71,-2.89,4.73,221.33,18,-5.48,-5.64,-22.3,-1057.31,20.38,49.62,42.5,-4.38,24.5,0.68,0.37,0.53,-0.35,40.94,77.36,-20.72,0,0,0,0,0
766.36,Coasting,0,0,0,0,0,0,0,0,0,221.93,99080.44,23.79,-758755712,390772288,-9.38,0.71,-2.89,4.73,221.33,18,-3.96,-8.68,-21.69,-1056.5,9.69,46.06,40.25,-23.38,8,0.71,0.31,0.55,-0.3,32.56,77.16,-18.86,0,0,0,0,0
766.37,Coasting,0,0,0,0,0,0,0,0,0,221.93,99080.44,23.79,-758755712,390772288,-9.38,0.71,-2.89,4.73,221.33,18,-2.93,-6.44,-19.75,-1059.06,1.19,38.38,40.25,-23.38,8,0.74,0.25,0.58,-0.24,23.79,77,-17.36,0,0,0,0,0
,,,,,,,,,,,,,,,,,,,,,,,,,,,,,,,,,,,,,,,,,,
766.38,Coasting,0,0,0,0,0,0,0,0,0,221.93,99080.44,23.79,-758755712,390772288,-9.38,0.71,-2.89,4.73,221.33,18,-2.75,-8.63,-19.23,-1060.44,-5.44,38.62,40.25,-23.38,8,0.76,0.19,0.6,-0.19,14.99,76.82,-15.89,0,0,0,0,0
766.39,Coasting,0,0,0,0,0,0,0,0,0,221.93,99080.44,23.79,-758755712,390772288,-9.38,0.71,-2.89,4.73,221.33,18,-2.29,-9.75,-20.29,-1064.69,-6.06,37.31,40.25,-23.38,8,0.77,0.12,0.61,-0.13,6.16,76.7,-14.4,0,0,0,0,0
766.4,Coasting,0,0,0,0,0,0,0,0,0,226.59,99025.42,23.8,-758755712,390772288,-9.38,0.71,-2.89,4.73,221.33,18,-1.17,-8.05,-21.61,-1065.69,-5.31,32.19,40.25,-23.38,8,0.78,0.05,0.62,-0.07,-2.83,76.64,-13.07,0,0,0,0,0
766.41,Coasting,0,0,0,0,0,0,0,0,0,226.59,99025.42,23.8,-758755712,390772288,-9.38,0.71,-2.89,4.73,221.33,18,-1.64,-7.59,-19.43,-1065.06,-0.25,28.44,39.88,-25.19,-11.06,0.78,-0.02,0.62,-0.02,-11.95,76.68,-11.88,0,0,0,0,0
766.42,Coasting,0,0,0,0,0,0,0,0,0,226.59,99025.42,23.8,-758755712,390772288,-9.38,0.71,-2.89,4.73,221.33,18,-1.45,-8.17,-20.31,-1062.88,11.62,34.69,39.88,-25.19,-11.06,0.78,-0.09,0.62,0.04,-20.99,76.87,-10.61,0,0,0,0,0
766.42,Coasting,0,0,0,0,0,0,0,0,0,226.59,99025.42,23.8,-758755712,390772288,-9.38,0.71,-2.89,4.73,221.33,18,-0.15,-9.02,-20,-1061.19,20.81,43,39.88,-25.19,-11.06,0.77,-0.15,0.62,0.1,-29.97,77.23,-9.32,0,0,0,0,0
766.43,Coasting,0,0,0,0,0,0,0,0,0,226.59,99025.42,23.8,-758755712,390772288,-9.38,0.71,-2.89,4.73,221.33,18,2.44,-9.2,-18.27,-1054.5,25.31,52.31,39.88,-25.19,-11.06,0.75,-0.22,0.61,0.16,-38.91,77.73,-8.05,0,0,0,0,0
766.45,Coasting,0,0,0,0,0,0,0,0,0,226.59,99025.42,23.8,-758755712,390772288,-9.38,0.71,-2.89,4.73,221.33,18,4.51,-9,-18.05,-1046.81,27,58.94,39.88,-25.19,-11.06,0.72,-0.28,0.59,0.21,-47.94,78.3,-6.95,0,0,0,0,0
766.46,Coasting,0,0,0,0,0,0,0,0,0,226.59,99025.42,23.8,-758755712,390772288,-9.38,0.71,-2.89,4.73,221.33,18,5.14,-7.67,-18.36,-1046.81,27,58.94,39.88,-25.19,-11.06,0.69,-0.34,0.58,0.27,-57.13,78.89,-6.02,0,0,0,0,0
766.46,Coasting,0,0,0,0,0,0,0,0,0,226.59,99025.42,23.8,-758755712,390772288,-9.38,0.71,-2.89,4.73,221.33,18,4.12,-5.13,-17.87,-1046.44,22.94,59.56,39.56,-7.56,-26.69,0.69,-0.34,0.58,0.27,-57.13,78.89,-6.02,0,0,0,0,0
766.47,Coasting,0,0,0,0,0,0,0,0,0,233.7,98941.56,23.79,-758755712,390772288,-9.38,0.71,-2.89,4.73,221.33,18,5.1,-5.74,-18.01,-1046.62,17.5,58.5,39.56,-7.56,-26.69,0.66,-0.4,0.55,0.32,-66.66,79.47,-5.43,0,0,0,0,0
766.48,Coasting,0,0,0,0,0,0,0,0,0,233.7,98941.56,23.79,-758755712,390772288,-9.38,0.71,-2.89,4.73,221.33,18,10.87,-6.33,-17.32,-1047,14.19,57.06,39.56,-7.56,-26.69,0.62,-0.45,0.53,0.37,-76.49,80.04,-5.16,0,0,0,0,0
766.49,Coasting,0,0,0,0,0,0,0,0,0,233.7,98941.56,23.79,-758755712,390772288,-9.38,0.71,-2.89,4.73,221.33,18,13.44,-5.82,-16.72,-1045.25,11.25,54,39.56,-7.56,-26.69,0.53,-0.55,0.46,0.46,-97.77,81.04,-6.29,0,0,0,0,0
766.5,Coasting,0,0,0,0,0,0,0,0,0,233.7,98941.56,23.79,-758755712,390772288,-9.38,0.71,-2.89,4.73,221.33,18,11.05,-4.24,-16.66,-1043.62,13.06,49.56,39.56,-7.56,-26.69,0.53,-0.55,0.46,0.46,-97.77,81.04,-6.29,0,0,0,0,0
766.51,Coasting,0,0,0,0,0,0,0,0,0,233.7,98941.56,23.79,-758755712,390772288,-9.38,0.71,-2.89,4.73,221.33,18,10.45,-1.91,-16.75,-1044.38,16.06,43.88,41.69,12.5,-19.75,0.47,-0.59,0.42,0.5,-109.46,81.42,-7.91,0,0,0,0,0
766.52,Coasting,0,0,0,0,0,0,0,0,0,233.7,98941.56,23.79,-758755712,390772288,-9.38,0.71,-2.89,4.73,221.33,18,12.76,-0.51,-16.98,-1042.75,17.25,45.5,41.69,12.5,-19.75,0.42,-0.63,0.38,0.54,-121.82,81.74,-10.24,0,0,0,0,0
766.53,Coasting,0,0,0,0,0,0,0,0,0,233.7,98941.56,23.79,-758755712,390772288,-9.38,0.71,-2.89,4.73,221.33,18,12.13,-0.33,-16.09,-1040.94,16.75,44.44,41.69,12.5,-19.75,0.36,-0.66,0.33,0.57,-134.62,81.98,-13.01,0,0,0,0,0
766.54,Coasting,0,0,0,0,0,0,0,0,0,240.88,98856.87,23.79,-758755712,390772288,-9.38,0.71,-2.89,4.73,221.33,18,11.89,1.26,-16.23,-1039.75,17.31,44.44,41.69,12.5,-19.75,0.3,-0.69,0.28,0.6,-147.8,82.11,-16.18,0,0,0,0,0
766.54,Coasting,0,0,0,0,0,0,0,0,0,240.88,98856.87,23.79,-758755712,390772288,-9.38,0.71,-2.89,4.73,221.33,18,8.8,0.65,-17.17,-1037.44,17.06,43.88,41.69,12.5,-19.75,0.23,-0.71,0.23,0.62,-161.09,82.15,-19.49,0,0,0,0,0
766.55,Coasting,0,0,0,0,0,0,0,0,0,240.88,98856.87,23.79,-758755712,390772288,-9.38,0.71,-2.89,4.73,221.33,18,8.89,3.37,-16.87,-1037.44,17.06,43.88,41.69,12.5,-19.75,0.17,-0.73,0.18,0.64,-174.18,82.08,-22.63,0,0,0,0,0
766.56,Coasting,0,0,0,0,0,0,0,0,0,240.88,98856.87,23.79,-758755712,390772288,-9.38,0.71,-2.89,4.73,221.33,18,9.11,6,-16.96,-1033.38,16.25,41.75,42.06,24,-4.19,0.17,-0.73,0.18,0.64,-174.18,82.08,-22.63,0,0,0,0,0
766.57,Coasting,0,0,0,0,0,0,0,0,0,240.88,98856.87,23.79,-758755712,390772288,-9.38,0.71,-2.89,4.73,221.33,18,7.25,4.25,-17.1,-1028.62,15.31,39.25,42.06,24,-4.19,0.1,-0.74,0.13,0.65,173.25,81.93,-25.29,0,0,0,0,0
766.58,Coasting,0,0,0,0,0,0,0,0,0,240.88,98856.87,23.79,-758755712,390772288,-9.38,0.71,-2.89,4.73,221.33,18,6.02,5.12,-17.61,-1025.19,14.5,37.06,42.06,24,-4.19,0.03,-0.75,0.07,0.66,161.11,81.72,-27.56,0,0,0,0,0
766.59,Coasting,0,0,0,0,0,0,0,0,0,240.88,98856.87,23.79,-758755712,390772288,-9.38,0.71,-2.89,4.73,221.33,18,4.96,4.43,-17.38,-1023,14.44,36.12,42.06,24,-4.19,-0.1,-0.75,-0.04,0.66,138.27,81.13,-30.71,0,0,0,0,0
766.6,Coasting,0,0,0,0,0,0,0,0,0,248.54,98766.7,23.79,-758755712,390772288,-9.38,0.71,-2.89,4.73,221.33,18,3.31,7.34,-17.77,-1020.44,13.44,37,42.06,24,-4.19,-0.1,-0.75,-0.04,0.66,138.27,81.13,-30.71,0,0,0,0,0
766.61,Coasting,0,0,0,0,0,0,0,0,0,248.54,98766.7,23.79,-758755712,390772288,-9.38,0.71,-2.89,4.73,221.33,18,2.56,6.77,-18.03,-1017.75,12.25,36.5,43.19,16.56,18.38,-0.17,-0.74,-0.09,0.65,127.5,80.79,-31.66,0,0,0,0,0
766.62,Coasting,0,0,0,0,0,0,0,0,0,248.54,98766.7,23.79,-758755712,390772288,-9.38,0.71,-2.89,4.73,221.33,18,0.22,7.18,-18.26,-1013.81,10.62,37.38,43.19,16.56,18.38,-0.23,-0.72,-0.14,0.64,117.03,80.43,-32.35,0,0,0,0,0
766.63,Coasting,0,0,0,0,0,0,0,0,0,248.54,98766.7,23.79,-758755712,390772288,-9.38,0.71,-2.89,4.73,221.33,18,1.3,7.49,-17.76,-1012.75,10.44,38.81,43.19,16.56,18.38,-0.29,-0.7,-0.19,0.62,106.98,80.04,-32.62,0,0,0,0,0
766.64,Coasting,0,0,0,0,0,0,0,0,0,248.54,98766.7,23.79,-758755712,390772288,-9.38,0.71,-2.89,4.73,221.33,18,-0.11,7.08,-17.98,-1012.5,11,39.31,43.19,16.56,18.38,-0.35,-0.67,-0.24,0.6,97.35,79.65,-32.48,0,0,0,0,0
766.65,Coasting,0,0,0,0,0,0,0,0,0,248.54,98766.7,23.79,-758755840,390772032,-9.28,-0.61,-6.01,4.82,201.73,11,-1.62,6.06,-17.77,-1010.38,12,40.31,43.19,16.56,18.38,-0.41,-0.64,-0.29,0.58,88.13,79.25,-31.93,0,0,0,0,0
766.77,Coasting,0,0,0,0,0,0,0,0,0,263.91,98585.8,23.79,-758755840,390772032,-9.28,-0.61,-6.01,4.82,201.73,11,-1.07,-7.72,-15.98,-974.62,14.5,24.31,39.88,-26.75,-8.88,-0.78,-0.02,-0.63,0.04,-4.01,77.6,-8.65,0,0,0,0,0
766.78,Coasting,0,0,0,0,0,0,0,0,0,263.91,98585.8,23.79,-758755840,390772032,-9.28,-0.61,-6.01,4.82,201.73,11,0.11,-8.28,-15.73,-971.94,16.75,21,39.88,-26.75,-8.88,-0.78,0.04,-0.63,-0.02,-12.61,77.79,-7.86,0,0,0,0,0
766.79,Coasting,0,0,0,0,0,0,0,0,0,263.91,98585.8,23.79,-758755840,390772032,-9.28,-0.61,-6.01,4.82,201.73,11,1.89,-8.79,-15.83,-968.81,19,19.94,39.88,-26.75,-8.88,-0.77,0.1,-0.63,-0.07,-21.34,78.02,-7.21,0,0,0,0,0
766.79,Coasting,0,0,0,0,0,0,0,0,0,270.77,98505.25,23.78,-758755840,390772032,-9.28,-0.61,-6.01,4.82,201.73,11,3.02,-7.9,-15.26,-965.81,19.69,20.75,39.88,-26.75,-8.88,-0.76,0.17,-0.62,-0.12,-30.19,78.28,-6.73,0,0,0,0,0
766.8,Coasting,0,0,0,0,0,0,0,0,0,270.77,98505.25,23.78,-758755840,390772032,-9.28,-0.61,-6.01,4.82,201.73,11,4.59,-7.49,-14.79,-965.81,19.69,20.75,39.88,-26.75,-8.88,-0.76,0.17,-0.62,-0.12,-30.19,78.28,-6.73,0,0,0,0,0
766.81,Coasting,0,0,0,0,0,0,0,0,0,270.77,98505.25,23.78,-758755840,390772032,-9.28,-0.61,-6.01,4.82,201.73,11,6.33,-7.53,-14.46,-964.31,17.88,25.19,39.88,-14.69,-22.5,-0.74,0.23,-0.61,-0.17,-39.03,78.56,-6.24,0,0,0,0,0
766.82,Coasting,0,0,0,0,0,0,0,0,0,270.77,98505.25,23.78,-758755840,390772032,-9.28,-0.61,-6.01,4.82,201.73,11,6.57,-6.39,-14.23,-963.5,14.75,29.62,39.88,-14.69,-22.5,-0.72,0.28,-0.6,-0.22,-47.78,78.85,-5.67,0,0,0,0,0
766.83,Coasting,0,0,0,0,0,0,0,0,0,270.77,98505.25,23.78,-758755840,390772032,-9.28,-0.61,-6.01,4.82,201.73,11,6.91,-5.5,-13.97,-960.5,10.06,31.25,39.88,-14.69,-22.5,-0.66,0.39,-0.55,-0.32,-65.18,79.46,-4.54,0,0,0,0,0
766.84,Coasting,0,0,0,0,0,0,0,0,0,270.77,98505.25,23.78,-758755840,390772032,-9.28,-0.61,-6.01,4.82,201.73,11,7.53,-4.67,-14.44,-956.69,5.81,32.31,39.88,-14.69,-22.5,-0.63,0.44,-0.53,-0.36,-73.92,79.75,-4.04,0,0,0,0,0
766.85,Coasting,0,0,0,0,0,0,0,0,0,278.33,98505.25,23.78,-758755840,390772032,-9.28,-0.61,-6.01,4.82,201.73,11,8.11,-4.24,-14.12,-955,1.62,31.88,39.88,-14.69,-22.5,-0.63,0.44,-0.53,-0.36,-73.92,79.75,-4.04,0,0,0,0,0
766.86,Coasting,0,0,0,0,0,0,0,0,0,278.33,98416.39,23.77,-758755840,390772032,-9.28,-0.61,-6.01,4.82,201.73,11,9.56,-3.92,-13.99,-953.06,-0.81,31.38,40.75,5,-26.69,-0.59,0.49,-0.5,-0.41,-82.71,80.04,-3.62,0,0,0,0,0
766.87,Coasting,0,0,0,0,0,0,0,0,0,278.33,98416.39,23.77,-758755840,390772032,-9.28,-0.61,-6.01,4.82,201.73,11,9.63,-2.84,-13.91,-950.88,-0.94,30.88,40.75,5,-26.69,-0.55,0.53,-0.47,-0.45,-91.75,80.34,-3.48,0,0,0,0,0
766.88,Coasting,0,0,0,0,0,0,0,0,0,278.33,98416.39,23.77,-758755840,390772032,-9.28,-0.61,-6.01,4.82,201.73,11,9.77,-2.06,-13.7,-948.12,0.5,31,40.75,5,-26.69,-0.5,0.58,-0.43,-0.48,-101.1,80.64,-3.68,0,0,0,0,0
766.89,Coasting,0,0,0,0,0,0,0,0,0,278.33,98416.39,23.77,-758755840,390772032,-9.28,-0.61,-6.01,4.82,201.73,11,9.36,-2.1,-13.67,-947.19,2.12,31.44,40.75,5,-26.69,-0.45,0.61,-0.39,-0.52,-110.91,80.92,-4.35,0,0,0,0,0
766.9,Coasting,0,0,0,0,0,0,0,0,0,278.33,98416.39,23.77,-758755840,390772032,-9.28,-0.61,-6.01,4.82,201.73,11,9.51,-0.99,-13.69,-947.38,4.56,32.44,40.75,5,-26.69,-0.4,0.65,-0.35,-0.55,-121.18,81.19,-5.48,0,0,0,0,0
766.91,Coasting,0,0,0,0,0,0,0,0,0,278.33,98416.39,23.77,-758755840,390772032,-9.28,-0.61,-6.01,4.82,201.73,11,8.38,-0.16,-13.31,-947.38,4.56,32.44,40.75,5,-26.69,-0.35,0.67,-0.31,-0.58,-131.93,81.41,-7.11,0,0,0,0,0
766.91,Coasting,0,0,0,0,0,0,0,0,0,278.33,98416.39,23.77,-758755840,390772032,-9.28,-0.61,-6.01,4.82,201.73,11,7.85,0.56,-12.76,-946.25,6.56,34.25,41.38,20.69,-11.5,-0.35,0.67,-0.31,-0.58,-131.93,81.41,-7.11,0,0,0,0,0
766.92,Coasting,0,0,0,0,0,0,0,0,0,286.32,98322.71,23.77,-758755840,390772032,-9.28,-0.61,-6.01,4.82,201.73,11,8.79,2.09,-14.17,-943.06,7.88,35.94,41.38,20.69,-11.5,-0.29,0.7,-0.26,-0.6,-143.12,81.59,-9.21,0,0,0,0,0
766.93,Coasting,0,0,0,0,0,0,0,0,0,286.32,98322.71,23.77,-758755840,390772032,-9.28,-0.61,-6.01,4.82,201.73,11,8.67,3.59,-13.63,-941.56,8.56,37.62,41.38,20.69,-11.5,-0.17,0.74,-0.17,-0.63,-166.49,81.75,-14.47,0,0,0,0,0
766.94,Coasting,0,0,0,0,0,0,0,0,0,286.32,98322.71,23.77,-758755840,390772032,-9.28,-0.61,-6.01,4.82,201.73,11,8.07,3.96,-13.96,-940.38,9.81,40.94,41.38,20.69,-11.5,-0.11,0.75,-0.12,-0.64,-178.57,81.69,-17.53,0,0,0,0,0
766.96,Coasting,0,0,0,0,0,0,0,0,0,286.32,98322.71,23.77,-758755840,390772032,-9.28,-0.61,-6.01,4.82,201.73,11,6.89,4.4,-13.81,-937,11.69,44.38,41.38,20.69,-11.5,-0.11,0.75,-0.12,-0.64,-178.57,81.69,-17.53,0,0,0,0,0
766.96,Coasting,0,0,0,0,0,0,0,0,0,286.32,98322.71,23.77,-758755840,390772032,-9.28,-0.61,-6.01,4.82,201.73,11,5.76,6.43,-14.17,-933.88,12,45.19,41.06,24.06,8,-0.05,0.75,-0.08,-0.65,169.53,81.55,-20.44,0,0,0,0,0
766.97,Coasting,0,0,0,0,0,0,0,0,0,286.32,98322.71,23.77,-758755840,390772032,-9.28,-0.61,-6.01,4.82,201.73,11,5.05,4.26,-13.7,-932.25,11.88,45.81,41.06,24.06,8,0.01,0.75,-0.03,-0.66,157.92,81.31,-23.07,0,0,0,0,0
766.98,Coasting,0,0,0,0,0,0,0,0,0,286.32,98322.71,23.77,-758755840,390772032,-9.28,-0.61,-6.01,4.82,201.73,11,3.72,5.37,-14.6,-930.25,12.06,45.69,41.06,24.06,8,0.08,0.75,0.02,-0.65,146.77,81,-25.26,0,0,0,0,0
766.99,Coasting,0,0,0,0,0,0,0,0,0,334.09,97763.56,20.66,-758755840,390772032,-9.28,-0.61,-6.01,4.82,201.73,11,3.19,6.76,-14.05,-928,11.88,44.69,41.06,24.06,8,0.14,0.74,0.07,-0.65,136.15,80.65,-26.93,0,0,0,0,0
,,,,,,,,,,,,,,,,,,,,,,,,,,,,,,,,,,,,,,,,,,
767,Coasting,0,0,0,0,0,0,0,0,0,334.09,97763.56,20.66,-758755840,390772032,-9.28,-0.61,-6.01,4.82,201.73,11,2.04,6.75,-14.27,-925.69,11.25,44.06,41.06,24.06,8,0.2,0.73,0.12,-0.64,126.06,80.25,-28.1,0,0,0,0,0
767.01,Coasting,0,0,0,0,0,0,0,0,0,334.09,97763.56,20.66,-758755840,390772032,-9.28,-0.61,-6.01,4.82,201.73,11,1.92,6.22,-14.64,-925.69,11.25,44.06,41.06,24.06,8,0.26,0.72,0.17,-0.63,116.4,79.84,-28.85,0,0,0,0,0
767.01,Coasting,0,0,0,0,0,0,0,0,0,334.09,97763.56,20.66,-758755840,390772032,-9.28,-0.61,-6.01,4.82,201.73,11,0.13,6.34,-14.64,-922.88,10.56,42.94,42.88,11.19,23.25,0.26,0.72,0.17,-0.63,116.4,79.84,-28.85,0,0,0,0,0
767.02,Coasting,0,0,0,0,0,0,0,0,0,334.09,97763.56,20.66,-758755840,390772032,-9.28,-0.61,-6.01,4.82,201.73,11,-0.4,5.56,-14.82,-919.94,10.56,41.56,42.88,11.19,23.25,0.31,0.69,0.21,-0.61,107.23,79.43,-29.14,0,0,0,0,0
767.03,Coasting,0,0,0,0,0,0,0,0,0,334.09,97763.56,20.66,-758755840,390772032,-9.28,-0.61,-6.01,4.82,201.73,11,-1.39,4.64,-14.58,-919.19,10.69,40.25,42.88,11.19,23.25,0.42,0.64,0.3,-0.57,89.96,78.65,-28.66,0,0,0,0,0
767.04,Coasting,0,0,0,0,0,0,0,0,0,334.09,97763.56,20.66,-758755840,390772032,-9.28,-0.61,-6.01,4.82,201.73,11,-1.71,3.82,-14.52,-917.19,11.31,38.5,42.88,11.19,23.25,0.47,0.61,0.34,-0.54,81.85,78.31,-27.94,0,0,0,0,0
767.05,Coasting,0,0,0,0,0,0,0,0,0,339.1,97705.14,20.7,-758755840,390772032,-9.28,-0.61,-6.01,4.82,201.73,11,-2.14,2.83,-14.66,-913.75,12.38,36.56,42.88,11.19,23.25,0.47,0.61,0.34,-0.54,81.85,78.31,-27.94,0,0,0,0,0
767.06,Coasting,0,0,0,0,0,0,0,0,0,339.1,97705.14,20.7,-758755840,390772032,-9.28,-0.61,-6.01,4.82,201.73,11,-0.6,1.7,-14.29,-909.62,13.44,34.12,41.38,-7.69,23.19,0.52,0.57,0.38,-0.51,73.99,78.01,-26.99,0,0,0,0,0
767.07,Coasting,0,0,0,0,0,0,0,0,0,339.1,97705.14,20.7,-758755840,390772032,-9.28,-0.61,-6.01,4.82,201.73,11,-0.23,1.29,-14.06,-908.88,14.12,33.38,41.38,-7.69,23.19,0.56,0.53,0.42,-0.48,66.34,77.76,-25.84,0,0,0,0,0
767.08,Coasting,0,0,0,0,0,0,0,0,0,339.1,97705.14,20.7,-758755840,390772032,-9.28,-0.61,-6.01,4.82,201.73,11,-0.95,0.32,-14.21,-907.19,14.5,33.38,41.38,-7.69,23.19,0.6,0.49,0.45,-0.44,58.8,77.54,-24.58,0,0,0,0,0
767.09,Coasting,0,0,0,0,0,0,0,0,0,339.1,97705.14,20.7,-758755840,390772032,-9.28,-0.61,-6.01,4.82,201.73,11,-4.17,0.54,-14.68,-904.12,14.81,33.25,41.38,-7.69,23.19,0.63,0.44,0.48,-0.41,51.44,77.35,-23.18,0,0,0,0,0
767.1,Coasting,0,0,0,0,0,0,0,0,0,339.1,97705.14,20.7,-758755840,390772032,-9.28,-0.61,-6.01,4.82,201.73,11,-4.34,-1.11,-14.59,-902,14.12,33.5,41.38,-7.69,23.19,0.67,0.4,0.51,-0.37,44.15,77.21,-21.72,0,0,0,0,0
767.11,Coasting,0,0,0,0,0,0,0,0,0,339.1,97705.14,20.7,-758755840,390772032,-9.28,-0.61,-6.01,4.82,201.73,11,-4.22,-2.14,-14.51,-902,14.12,33.5,41.38,-7.69,23.19,0.7,0.35,0.54,-0.32,36.86,77.09,-20.26,0,0,0,0,0
767.11,Coasting,0,0,0,0,0,0,0,0,0,339.1,97705.14,20.7,-758755840,390772032,-9.28,-0.61,-6.01,4.82,201.73,11,-3.24,-2.67,-14.62,-900.62,13.44,33.31,40.69,-24.5,11.75,0.7,0.35,0.54,-0.32,36.86,77.09,-20.26,0,0,0,0,0
767.12,Coasting,0,0,0,0,0,0,0,0,0,318.49,97945.84,22.87,-758755840,390772032,-9.28,-0.61,-6.01,4.82,201.73,11,-2.69,-3.53,-13.9,-899.88,12.12,33.19,40.69,-24.5,11.75,0.72,0.3,0.56,-0.28,29.63,77.02,-18.76,0,0,0,0,0
767.13,Coasting,0,0,0,0,0,0,0,0,0,318.49,97945.84,22.87,-758755840,390772032,-9.28,-0.61,-6.01,4.82,201.73,11,-1.13,-2.68,-13.51,-899.56,10.69,32.94,40.69,-24.5,11.75,0.76,0.19,0.6,-0.19,15.16,76.95,-15.81,0,0,0,0,0
767.15,Coasting,0,0,0,0,0,0,0,0,0,318.49,97945.84,22.87,-758755840,390772032,-9.28,-0.61,-6.01,4.82,201.73,11,-1.58,-4.61,-13.19,-896.81,9.31,33.5,40.69,-24.5,11.75,0.77,0.13,0.61,-0.14,7.98,76.96,-14.3,0,0,0,0,0
767.16,Coasting,0,0,0,0,0,0,0,0,0,318.49,97945.84,22.87,-758755840,390772032,-9.28,-0.61,-6.01,4.82,201.73,11,-1.08,-5.72,-13.22,-894.88,7.75,34.31,40.69,-24.5,11.75,0.77,0.13,0.61,-0.14,7.98,76.96,-14.3,0,0,0,0,0
767.16,Coasting,0,0,0,0,0,0,0,0,0,318.49,97945.84,22.87,-758755840,390772032,-9.28,-0.61,-6.01,4.82,201.73,11,0.57,-2.91,-13.13,-893.56,6.38,36.19,40.69,-26.25,-8.19,0.78,0.07,0.62,-0.09,0.88,76.99,-12.73,0,0,0,0,0
767.17,Coasting,0,0,0,0,0,0,0,0,0,318.49,97945.84,22.87,-758755840,390772032,-9.28,-0.61,-6.01,4.82,201.73,11,0.57,-7.22,-13.11,-891.25,4.56,37,40.69,-26.25,-8.19,0.78,0.02,0.62,-0.04,-6.19,77.05,-11.15,0,0,0,0,0
767.18,Coasting,0,0,0,0,0,0,0,0,0,324.78,97945.84,22.87,-758755840,390772032,-9.28,-0.61,-6.01,4.82,201.73,11,1.41,-7.01,-13.21,-887.81,3.12,36.44,40.69,-26.25,-8.19,0.78,-0.04,0.62,0.01,-13.28,77.14,-9.62,0,0,0,0,0
767.19,Coasting,0,0,0,0,0,0,0,0,0,313.03,98009.78,23.76,-758755840,390772032,-9.28,-0.61,-6.01,4.82,201.73,11,2.41,-7.53,-12.99,-885.06,1.62,34.81,40.69,-26.25,-8.19,0.77,-0.09,0.62,0.06,-20.44,77.25,-8.19,0,0,0,0,0
767.2,Coasting,0,0,0,0,0,0,0,0,0,313.03,98009.78,23.76,-758755840,390772032,-9.28,-0.61,-6.01,4.82,201.73,11,1.45,-4.49,-12.47,-882.94,0.06,31.88,40.69,-26.25,-8.19,0.77,-0.15,0.62,0.1,-27.72,77.38,-6.92,0,0,0,0,0
767.21,Coasting,0,0,0,0,0,0,0,0,0,313.03,98009.78,23.76,-758755840,390772032,-9.28,-0.61,-6.01,4.82,201.73,11,2.04,-4.58,-12.35,-882.94,0.06,31.88,39.88,-15,-23.06,0.75,-0.21,0.61,0.15,-35.26,77.53,-5.92,0,0,0,0,0
767.22,Coasting,0,0,0,0,0,0,0,0,0,313.03,98009.78,23.76,-758755840,390772032,-9.28,-0.61,-6.01,4.82,201.73,11,2.68,-4.68,-12.85,-880.88,1.44,26.75,39.88,-15,-23.06,0.75,-0.21,0.61,0.15,-35.26,77.53,-5.92,0,0,0,0,0
767.22,Coasting,0,0,0,0,0,0,0,0,0,313.03,98009.78,23.76,-758755840,390772032,-9.28,-0.61,-6.01,4.82,201.73,11,4.89,-7.16,-11.76,-880.88,1.44,26.75,39.88,-15,-23.06,0.71,-0.31,0.58,0.24,-50.72,77.91,-4.34,0,0,0,0,0
767.23,Coasting,0,0,0,0,0,0,0,0,0,313.03,98009.78,23.76,-758755840,390772032,-9.28,-0.61,-6.01,4.82,201.73,11,4.91,-6.55,-11.71,-879.38,3.44,26.12,39.88,-15,-23.06,0.69,-0.36,0.56,0.29,-58.79,78.19,-3.9,0,0,0,0,0
767.25,Coasting,0,0,0,0,0,0,0,0,0,313.03,98009.78,23.76,-758755840,390772032,-9.28,-0.61,-6.01,4.82,201.73,11,5.58,-5.69,-11.54,-878.94,11.31,33.31,39.88,-15,-23.06,0.66,-0.41,0.54,0.33,-67.04,78.53,-3.66,0,0,0,0,0
767.26,Coasting,0,0,0,0,0,0,0,0,0,320.27,97925.08,23.76,-758755840,390772032,-9.28,-0.61,-6.01,4.82,201.73,11,6.63,-4.89,-10.99,-878.94,11.31,33.31,39.88,-15,-23.06,0.66,-0.41,0.54,0.33,-67.04,78.53,-3.66,0,0,0,0,0
767.26,Coasting,0,0,0,0,0,0,0,0,0,320.27,97925.08,23.76,-758755840,390772032,-9.28,-0.61,-6.01,4.82,201.73,11,6.4,-3.7,-11.29,-874.81,12.81,37.75,41.38,2.56,-26.19,0.62,-0.46,0.52,0.37,-75.52,78.91,-3.68,0,0,0,0,0
767.27,Coasting,0,0,0,0,0,0,0,0,0,320.27,97925.08,23.76,-758755840,390772032,-9.28,-0.61,-6.01,4.82,201.73,11,4.19,-2.09,-11.93,-868.94,13,39.94,41.38,2.56,-26.19,0.59,-0.5,0.49,0.41,-84.23,79.31,-4,0,0,0,0,0
767.28,Coasting,0,0,0,0,0,0,0,0,0,320.27,97925.08,23.76,-758755840,390772032,-9.28,-0.61,-6.01,4.82,201.73,11,4.44,-2.02,-11.56,-864.56,11.38,41.62,41.38,2.56,-26.19,0.55,-0.54,0.46,0.44,-93.09,79.72,-4.52,0,0,0,0,0
767.29,Coasting,0,0,0,0,0,0,0,0,0,320.27,97925.08,23.76,-758755840,390772032,-9.28,-0.61,-6.01,4.82,201.73,11,7.41,-1.49,-10.79,-863.44,8.88,42.56,41.38,2.56,-26.19,0.5,-0.58,0.43,0.48,-102.24,80.12,-5.33,0,0,0,0,0
767.3,Coasting,0,0,0,0,0,0,0,0,0,320.27,97925.08,23.76,-758755840,390772032,-9.28,-0.61,-6.01,4.82,201.73,11,7.77,-0.67,-11.23,-859.38,6.81,43.25,41.38,2.56,-26.19,0.46,-0.61,0.4,0.51,-111.62,80.49,-6.43,0,0,0,0,0
767.31,Coasting,0,0,0,0,0,0,0,0,0,320.27,97925.08,23.76,-758755840,390772032,-9.28,-0.61,-6.01,4.82,201.73,11,7.77,-0.67,-11.23,-857.25,5.69,43.12,40.56,20.19,-15.06,0.41,-0.64,0.36,0.54,-121.33,80.85,-7.87,0,0,0,0,0
767.32,Coasting,0,0,0,0,0,0,0,0,0,326.37,97853.73,23.75,-758755840,390772032,-9.28,-0.61,-6.01,4.82,201.73,11,8.3,0.31,-10.89,-857.25,5.69,43.12,40.56,20.19,-15.06,0.41,-0.64,0.36,0.54,-121.33,80.85,-7.87,0,0,0,0,0
767.32,Coasting,0,0,0,0,0,0,0,0,0,326.37,97853.73,23.75,-758755840,390772032,-9.28,-0.61,-6.01,4.82,201.73,11,8.26,1.08,-10.89,-854.69,4.75,41.56,40.56,20.19,-15.06,0.31,-0.69,0.29,0.59,-141.59,81.37,-11.68,0,0,0,0,0
767.34,Coasting,0,0,0,0,0,0,0,0,0,326.37,97853.73,23.75,-758755840,390772032,-9.28,-0.61,-6.01,4.82,201.73,11,8.19,2.6,-11.08,-853,5,39.56,40.56,20.19,-15.06,0.26,-0.71,0.25,0.61,-151.98,81.53,-13.86,0,0,0,0,0
767.35,Coasting,0,0,0,0,0,0,0,0,0,326.37,97853.73,23.75,-758755840,390772032,-9.28,-0.61,-6.01,4.82,201.73,11,7.33,2.33,-11.5,-850.75,4.94,34,40.56,20.19,-15.06,0.21,-0.73,0.2,0.62,-162.38,81.61,-16.06,0,0,0,0,0
767.36,Coasting,0,0,0,0,0,0,0,0,0,326.37,97853.73,23.75,-758755840,390772032,-9.28,-0.61,-6.01,4.82,201.73,11,5.28,1.36,-11.36,-850.75,4.94,34,40.56,20.19,-15.06,0.21,-0.73,0.2,0.62,-162.38,81.61,-16.06,0,0,0,0,0
767.36,Coasting,0,0,0,0,0,0,0,0,0,326.37,97853.73,23.75,-758755840,390772032,-9.28,-0.61,-6.01,4.82,201.73,11,5.83,2.37,-11.16,-848.19,6.56,32.06,42.75,24.56,3.06,0.15,-0.74,0.16,0.64,-172.73,81.62,-18.24,0,0,0,0,0
767.37,Coasting,0,0,0,0,0,0,0,0,0,326.37,97853.73,23.75,-758755840,390772032,-9.28,-0.61,-6.01,4.82,201.73,11,4.7,1.62,-10.97,-844.94,9.38,30.31,42.75,24.56,3.06,0.1,-0.75,0.12,0.65,177.12,81.53,-20.25,0,0,0,0,0
767.38,Coasting,0,0,0,0,0,0,0,0,0,332.32,97784.2,23.75,-758755840,390772032,-9.28,-0.61,-6.01,4.82,201.73,11,4.58,1.03,-11.51,-843.69,12.44,30.38,42.75,24.56,3.06,0.04,-0.75,0.07,0.65,167.15,81.38,-22.09,0,0,0,0,0
767.39,Coasting,0,0,0,0,0,0,0,0,0,332.32,97784.2,23.75,-758755840,390772032,-9.28,-0.61,-6.01,4.82,201.73,11,4.08,1.89,-11.58,-843.19,14.75,31.25,42.75,24.56,3.06,-0.01,-0.76,0.03,0.65,157.4,81.15,-23.71,0,0,0,0,0
767.4,Coasting,0,0,0,0,0,0,0,0,0,332.32,97784.2,23.75,-758755840,390772032,-9.28,-0.61,-6.01,4.82,201.73,11,2.34,5.68,-11.46,-842.06,15.38,33.75,42.75,24.56,3.06,-0.07,-0.75,-0.02,0.65,147.87,80.86,-25.12,0,0,0,0,0
767.41,Coasting,0,0,0,0,0,0,0,0,0,332.32,97784.2,23.75,-758755840,390772032,-9.28,-0.61,-6.01,4.82,201.73,11,2.42,4.67,-11.42,-838.81,14.56,35.94,41.56,16.56,20.38,-0.13,-0.75,-0.06,0.65,138.59,80.54,-26.31,0,0,0,0,0
767.42,Coasting,0,0,0,0,0,0,0,0,0,332.32,97784.2,23.75,-758755840,390772032,-9.28,-0.61,-6.01,4.82,201.73,11,1.69,4.66,-11.56,-838.81,14.56,35.94,41.56,16.56,20.38,-0.18,-0.74,-0.1,0.64,129.54,80.19,-27.29,0,0,0,0,0
767.42,Coasting,0,0,0,0,0,0,0,0,0,332.32,97784.2,23.75,-758755840,390772032,-9.28,-0.61,-6.01,4.82,201.73,11,2.06,3.99,-11.8,-837.06,13.12,38,41.56,16.56,20.38,-0.23,-0.72,-0.15,0.63,120.71,79.81,-28.04,0,0,0,0,0
767.44,Coasting,0,0,0,0,0,0,0,0,0,332.32,97784.2,23.75,-758755840,390772032,-9.28,-0.61,-6.01,4.82,201.73,11,0.36,4.8,-11.76,-833.69,10,39.88,41.56,16.56,20.38,-0.29,-0.71,-0.19,0.62,112.2,79.43,-28.5,0,0,0,0,0
767.45,Coasting,0,0,0,0,0,0,0,0,0,339.05,97705.67,23.75,-758755840,390772032,-9.28,-0.61,-6.01,4.82,201.73,11,-0.41,4.32,-12.04,-829.25,8.38,38.88,41.56,16.56,20.38,-0.34,-0.69,-0.23,0.6,103.98,79.04,-28.71,0,0,0,0,0
767.46,Coasting,0,0,0,0,0,0,0,0,0,339.05,97705.67,23.75,-758755840,390772032,-9.28,-0.61,-6.01,4.82,201.73,11,-0.87,3.65,-12.3,-829.25,8.38,38.88,41.56,16.56,20.38,-0.38,-0.66,-0.27,0.58,95.95,78.67,-28.77,0,0,0,0,0
767.47,Coasting,0,0,0,0,0,0,0,0,0,339.05,97705.67,23.75,-758755840,390772032,-9.28,-0.61,-6.01,4.82,201.73,11,-2.21,4.13,-11.94,-824.88,5.94,38.44,43.06,-0.56,24.06,-0.38,-0.66,-0.27,0.58,95.95,78.67,-28.77,0,0,0,0,0
767.47,Coasting,0,0,0,0,0,0,0,0,0,339.05,97705.67,23.75,-758755840,390772032,-9.28,-0.61,-6.01,4.82,201.73,11,-2.44,3.93,-12.55,-823.19,4.75,36.88,43.06,-0.56,24.06,-0.43,-0.63,-0.31,0.56,88.16,78.31,-28.6,0,0,0,0,0
767.48,Coasting,0,0,0,0,0,0,0,0,0,339.05,97705.67,23.75,-758755840,390772032,-9.28,-0.61,-6.01,4.82,201.73,11,-2.4,2.89,-12.45,-822.5,6.12,34.5,43.06,-0.56,24.06,-0.48,-0.6,-0.34,0.54,80.66,77.98,-28.14,0,0,0,0,0
767.49,Coasting,0,0,0,0,0,0,0,0,0,339.05,97705.67,23.75,-758755840,390772032,-9.28,-0.61,-6.01,4.82,201.73,11,-2.43,2.27,-12.57,-821.31,8.88,32.62,43.06,-0.56,24.06,-0.52,-0.57,-0.38,0.51,73.44,77.69,-27.41,0,0,0,0,0
767.5,Coasting,0,0,0,0,0,0,0,0,0,339.05,97705.67,23.75,-758755840,390772032,-9.28,-0.61,-6.01,4.82,201.73,11,-3.6,1.48,-12.3,-820.31,11.94,31.81,43.06,-0.56,24.06,-0.56,-0.54,-0.41,0.48,66.47,77.45,-26.44,0,0,0,0,0
767.51,Coasting,0,0,0,0,0,0,0,0,0,345.33,97632.44,23.74,-758755840,390772032,-9.28,-0.61,-6.01,4.82,201.73,11,-3.08,0.66,-11.45,-816.62,13.81,32.31,40.56,-16.25,19.5,-0.59,-0.5,-0.44,0.45,59.74,77.23,-25.25,0,0,0,0,0
,,,,,,,,,,,,,,,,,,,,,,,,,,,,,,,,,,,,,,,,,,
767.52,Coasting,0,0,0,0,0,0,0,0,0,345.33,97632.44,23.74,-758755840,390772032,-9.28,-0.61,-6.01,4.82,201.73,11,-3.08,0.66,-11.45,-814.81,15.19,33.56,40.56,-16.25,19.5,-0.63,-0.46,-0.47,0.42,53.2,77.04,-23.88,0,0,0,0,0
767.53,Coasting,0,0,0,0,0,0,0,0,0,345.33,97632.44,23.74,-758755840,390772032,-9.28,-0.61,-6.01,4.82,201.73,11,-2.96,-0.08,-11.97,-814.5,16.44,35.38,40.56,-16.25,19.5,-0.66,-0.42,-0.5,0.38,46.8,76.88,-22.37,0,0,0,0,0
767.54,Coasting,0,0,0,0,0,0,0,0,0,345.33,97632.44,23.74,-758755840,390772032,-9.28,-0.61,-6.01,4.82,201.73,11,-3.03,-0.65,-11.82,-814.06,16.88,37.44,40.56,-16.25,19.5,-0.68,-0.37,-0.52,0.34,40.52,76.75,-20.74,0,0,0,0,0
767.55,Coasting,0,0,0,0,0,0,0,0,0,345.33,97632.44,23.74,-758755840,390772032,-9.28,-0.61,-6.01,4.82,201.73,11,-1.82,-1.24,-11.59,-812.25,15.94,38.75,40.56,-16.25,19.5,-0.71,-0.33,-0.55,0.3,34.33,76.64,-19.02,0,0,0,0,0
767.56,Coasting,0,0,0,0,0,0,0,0,0,345.33,97632.44,23.74,-758755840,390772032,-9.28,-0.61,-6.01,4.82,201.73,11,-1.52,-1.49,-11.62,-812.25,15.94,38.75,40.56,-16.25,19.5,-0.73,-0.28,-0.57,0.26,28.19,76.57,-17.3,0,0,0,0,0
767.57,Coasting,0,0,0,0,0,0,0,0,0,345.33,97632.44,23.74,-758755840,390772032,-9.28,-0.61,-6.01,4.82,201.73,11,-2.45,-3.45,-11.45,-809.44,14.44,39.5,40.56,-26.5,4.56,-0.73,-0.28,-0.57,0.26,28.19,76.57,-17.3,0,0,0,0,0
767.57,Coasting,0,0,0,0,0,0,0,0,0,351.38,97632.44,23.74,-758755840,390772032,-9.28,-0.61,-6.01,4.82,201.73,11,-2.43,-4.5,-11.14,-807.5,12.5,38.62,40.56,-26.5,4.56,-0.75,-0.23,-0.58,0.22,22,76.52,-15.64,0,0,0,0,0
767.58,Coasting,0,0,0,0,0,0,0,0,0,351.38,97561.89,23.74,-758755840,390772032,-9.28,-0.61,-6.01,4.82,201.73,11,-1.71,-4.7,-11.52,-805.19,10.81,37.31,40.56,-26.5,4.56,-0.76,-0.18,-0.6,0.18,15.79,76.5,-14.03,0,0,0,0,0
767.59,Coasting,0,0,0,0,0,0,0,0,0,351.38,97561.89,23.74,-758755840,390772032,-9.28,-0.61,-6.01,4.82,201.73,11,-1.39,-4.88,-10.96,-803.38,10.12,35.5,40.56,-26.5,4.56,-0.78,-0.08,-0.61,0.09,3.18,76.57,-11.05,0,0,0,0,0
767.6,Coasting,0,0,0,0,0,0,0,0,0,351.38,97561.89,23.74,-758755840,390772032,-9.28,-0.61,-6.01,4.82,201.73,11,-0.02,-2.67,-11.08,-800.88,9.62,33.81,40.56,-26.5,4.56,-0.78,-0.08,-0.61,0.09,3.18,76.57,-11.05,0,0,0,0,0
767.61,Coasting,0,0,0,0,0,0,0,0,0,351.38,97561.89,23.74,-758755840,390772032,-9.28,-0.61,-6.01,4.82,201.73,11,0.37,-5,-10.51,-797.81,9.62,32.25,39.75,-24.69,-13,-0.78,-0.03,-0.62,0.05,-3.23,76.67,-9.71,0,0,0,0,0
767.62,Coasting,0,0,0,0,0,0,0,0,0,351.38,97561.89,23.74,-758755840,390772032,-9.28,-0.61,-6.01,4.82,201.73,11,0.79,-6.22,-10.32,-796.19,9.94,31.06,39.75,-24.69,-13,-0.78,0.02,-0.62,0.01,-9.7,76.8,-8.45,0,0,0,0,0
767.63,Coasting,0,0,0,0,0,0,0,0,0,351.38,97561.89,23.74,-758755840,390772032,-9.28,-0.61,-6.01,4.82,201.73,11,0.8,-5.75,-10.68,-795.75,9.81,30.06,39.75,-24.69,-13,-0.78,0.07,-0.62,-0.04,-16.28,76.96,-7.31,0,0,0,0,0
767.64,Coasting,0,0,0,0,0,0,0,0,0,356.32,97503.52,23.75,-758755840,390772032,-9.28,-0.61,-6.01,4.82,201.73,11,1.81,-5.94,-10.2,-793.81,9.69,29.31,39.75,-24.69,-13,-0.77,0.12,-0.62,-0.08,-22.91,77.14,-6.24,0,0,0,0,0
767.65,Coasting,0,0,0,0,0,0,0,0,0,356.32,97504.27,23.75,-758755712,390771488,-9.16,1.11,-11.79,4.95,171.58,6,2.53,-5.92,-10.06,-791.94,9.5,28.75,39.75,-24.69,-13,-0.76,0.17,-0.61,-0.12,-29.65,77.34,-5.31,0,0,0,0,0
767.72,Coasting,0,0,0,0,0,0,0,0,0,362.59,97431.27,23.74,-758755712,390771488,-9.16,1.11,-11.79,4.95,171.58,6,5.78,-3.16,-9.24,-783.5,9.69,28.81,41.25,5.38,-25.56,-0.6,0.49,-0.5,-0.4,-80.38,79.2,-2.74,0,0,0,0,0
767.73,Coasting,0,0,0,0,0,0,0,0,0,362.59,97431.27,23.74,-758755712,390771488,-9.16,1.11,-11.79,4.95,171.58,6,6.1,-2.62,-9.21,-783.12,9.5,29.19,41.25,5.38,-25.56,-0.56,0.52,-0.47,-0.43,-88.29,79.49,-3.08,0,0,0,0,0
767.74,Coasting,0,0,0,0,0,0,0,0,0,362.59,97431.27,23.74,-758755712,390771488,-9.16,1.11,-11.79,4.95,171.58,6,4.85,-1.87,-9.23,-782.5,8.62,29.06,41.25,5.38,-25.56,-0.53,0.56,-0.45,-0.46,-96.36,79.76,-3.61,0,0,0,0,0
767.75,Coasting,0,0,0,0,0,0,0,0,0,362.59,97431.27,23.74,-758755712,390771488,-9.16,1.11,-11.79,4.95,171.58,6,5.76,-1.8,-9.1,-780.94,8.25,29.5,41.25,5.38,-25.56,-0.49,0.59,-0.42,-0.49,-104.67,80.03,-4.38,0,0,0,0,0
767.76,Coasting,0,0,0,0,0,0,0,0,0,362.59,97431.27,23.74,-758755712,390771488,-9.16,1.11,-11.79,4.95,171.58,6,6.57,-1.03,-8.69,-780.94,8.25,29.5,41.25,5.38,-25.56,-0.49,0.59,-0.42,-0.49,-104.67,80.03,-4.38,0,0,0,0,0
767.77,Coasting,0,0,0,0,0,0,0,0,0,362.59,97431.27,23.74,-758755712,390771488,-9.16,1.11,-11.79,4.95,171.58,6,6.79,-0.47,-8.82,-778,8.75,30.06,41,20,-15.38,-0.45,0.62,-0.38,-0.52,-113.18,80.28,-5.38,0,0,0,0,0
767.77,Coasting,0,0,0,0,0,0,0,0,0,368.09,97367.17,23.74,-758755712,390771488,-9.16,1.11,-11.79,4.95,171.58,6,7.15,0.87,-8.6,-775.75,9.31,30.06,41,20,-15.38,-0.4,0.65,-0.35,-0.54,-121.92,80.5,-6.64,0,0,0,0,0
767.78,Coasting,0,0,0,0,0,0,0,0,0,368.09,97367.17,23.74,-758755712,390771488,-9.16,1.11,-11.79,4.95,171.58,6,5.1,-0.27,-9.24,-774.56,10.19,29.69,41,20,-15.38,-0.36,0.67,-0.32,-0.56,-130.94,80.67,-8.19,0,0,0,0,0
767.79,Coasting,0,0,0,0,0,0,0,0,0,368.09,97367.17,23.74,-758755712,390771488,-9.16,1.11,-11.79,4.95,171.58,6,5.41,0.94,-9,-772.38,10.75,28.81,41,20,-15.38,-0.31,0.69,-0.28,-0.58,-140.07,80.79,-9.88,0,0,0,0,0
767.8,Coasting,0,0,0,0,0,0,0,0,0,368.09,97367.17,23.74,-758755712,390771488,-9.16,1.11,-11.79,4.95,171.58,6,6.33,2.06,-8.76,-769.5,11.38,28.56,41,20,-15.38,-0.26,0.71,-0.25,-0.6,-149.3,80.85,-11.69,0,0,0,0,0
767.81,Coasting,0,0,0,0,0,0,0,0,0,368.09,97367.17,23.74,-758755712,390771488,-9.16,1.11,-11.79,4.95,171.58,6,5.37,3.16,-9.13,-767,11.75,28.44,42,25.19,0.69,-0.22,0.73,-0.21,-0.62,-158.54,80.88,-13.55,0,0,0,0,0
767.82,Coasting,0,0,0,0,0,0,0,0,0,368.09,97367.17,23.74,-758755712,390771488,-9.16,1.11,-11.79,4.95,171.58,6,5.52,2.05,-8.59,-765.31,12.31,28.75,42,25.19,0.69,-0.17,0.74,-0.17,-0.63,-167.79,80.84,-15.43,0,0,0,0,0
767.83,Coasting,0,0,0,0,0,0,0,0,0,368.09,97367.17,23.74,-758755712,390771488,-9.16,1.11,-11.79,4.95,171.58,6,5.18,2.51,-8.68,-763.31,12.81,29.38,42,25.19,0.69,-0.12,0.75,-0.13,-0.64,-177.03,80.76,-17.31,0,0,0,0,0
767.84,Coasting,0,0,0,0,0,0,0,0,0,373.72,97301.71,23.74,-758755712,390771488,-9.16,1.11,-11.79,4.95,171.58,6,4.47,3.46,-8.99,-761.5,12.31,30.12,42,25.19,0.69,-0.07,0.76,-0.09,-0.64,173.86,80.63,-19.08,0,0,0,0,0
767.85,Coasting,0,0,0,0,0,0,0,0,0,373.72,97301.71,23.74,-758755712,390771488,-9.16,1.11,-11.79,4.95,171.58,6,3.88,3.86,-9.3,-760,12.06,30.88,42,25.19,0.69,-0.02,0.76,-0.05,-0.65,164.85,80.46,-20.77,0,0,0,0,0
767.86,Coasting,0,0,0,0,0,0,0,0,0,373.72,97301.71,23.74,-758755712,390771488,-9.16,1.11,-11.79,4.95,171.58,6,3.56,3.79,-9.23,-760,12.06,30.88,42,25.19,0.69,0.03,0.76,-0.01,-0.65,156.06,80.26,-22.26,0,0,0,0,0
767.87,Coasting,0,0,0,0,0,0,0,0,0,373.72,97301.71,23.74,-758755712,390771488,-9.16,1.11,-11.79,4.95,171.58,6,2.73,4.24,-8.88,-758.44,10.81,31.75,43.5,19,15.38,0.03,0.76,-0.01,-0.65,156.06,80.26,-22.26,0,0,0,0,0
767.87,Coasting,0,0,0,0,0,0,0,0,0,373.72,97301.71,23.74,-758755712,390771488,-9.16,1.11,-11.79,4.95,171.58,6,2.61,2.78,-9.01,-756.19,9.62,32.38,43.5,19,15.38,0.08,0.76,0.03,-0.65,147.39,80.03,-23.63,0,0,0,0,0
767.88,Coasting,0,0,0,0,0,0,0,0,0,373.72,97301.71,23.74,-758755712,390771488,-9.16,1.11,-11.79,4.95,171.58,6,1.9,3.67,-9.53,-754.88,8.56,32.75,43.5,19,15.38,0.13,0.75,0.07,-0.64,138.96,79.77,-24.77,0,0,0,0,0
767.89,Coasting,0,0,0,0,0,0,0,0,0,373.72,97301.71,23.74,-758755712,390771488,-9.16,1.11,-11.79,4.95,171.58,6,0.99,4.79,-9.91,-753.75,7.88,32.5,43.5,19,15.38,0.18,0.74,0.1,-0.64,130.74,79.5,-25.73,0,0,0,0,0
767.91,Coasting,0,0,0,0,0,0,0,0,0,379.23,97237.66,23.73,-758755712,390771488,-9.16,1.11,-11.79,4.95,171.58,6,0.43,3.79,-9.48,-752.88,7.06,32.19,43.5,19,15.38,0.23,0.73,0.14,-0.63,122.78,79.21,-26.42,0,0,0,0,0
767.91,Coasting,0,0,0,0,0,0,0,0,0,379.23,97237.66,23.73,-758755712,390771488,-9.16,1.11,-11.79,4.95,171.58,6,0.38,3.6,-9.64,-751.12,7,32,41.56,6.88,25,0.28,0.71,0.18,-0.62,115.05,78.91,-26.9,0,0,0,0,0
767.92,Coasting,0,0,0,0,0,0,0,0,0,379.23,97237.66,23.73,-758755712,390771488,-9.16,1.11,-11.79,4.95,171.58,6,-0.35,4.09,-9.68,-747.88,7.38,31.69,41.56,6.88,25,0.32,0.69,0.22,-0.6,107.61,78.59,-27.12,0,0,0,0,0
767.93,Coasting,0,0,0,0,0,0,0,0,0,379.23,97237.66,23.73,-758755712,390771488,-9.16,1.11,-11.79,4.95,171.58,6,-0.23,3.54,-9.78,-745.56,8,31.06,41.56,6.88,25,0.37,0.67,0.25,-0.59,100.41,78.28,-27.11,0,0,0,0,0
767.94,Coasting,0,0,0,0,0,0,0,0,0,379.23,97237.66,23.73,-758755712,390771488,-9.16,1.11,-11.79,4.95,171.58,6,-0.72,3.24,-9.87,-743.44,8.5,30.25,41.56,6.88,25,0.41,0.65,0.29,-0.57,93.44,77.98,-26.89,0,0,0,0,0
767.95,Coasting,0,0,0,0,0,0,0,0,0,379.23,97237.66,23.73,-758755712,390771488,-9.16,1.11,-11.79,4.95,171.58,6,-1.64,3.21,-9.87,-740.88,9.38,29.88,41.56,6.88,25,0.45,0.62,0.32,-0.55,86.68,77.69,-26.47,0,0,0,0,0
767.96,Coasting,0,0,0,0,0,0,0,0,0,379.23,97237.66,23.73,-758755712,390771488,-9.16,1.11,-11.79,4.95,171.58,6,-1.65,2.5,-9.92,-740.88,9.38,29.88,41.56,6.88,25,0.45,0.62,0.32,-0.55,86.68,77.69,-26.47,0,0,0,0,0
767.97,Coasting,0,0,0,0,0,0,0,0,0,400.46,96991.06,22.49,-758755712,390771488,-9.16,1.11,-11.79,4.95,171.58,6,-1.48,1.58,-9.79,-738.94,9.94,30.38,41.25,-9.19,23.88,0.49,0.6,0.35,-0.53,80.15,77.41,-25.85,0,0,0,0,0
767.97,Coasting,0,0,0,0,0,0,0,0,0,400.46,96991.06,22.49,-758755712,390771488,-9.16,1.11,-11.79,4.95,171.58,6,-2.19,1.35,-9.59,-737.69,9.75,31,41.25,-9.19,23.88,0.53,0.57,0.38,-0.5,73.7,77.14,-25.15,0,0,0,0,0
767.98,Coasting,0,0,0,0,0,0,0,0,0,400.46,96991.06,22.49,-758755712,390771488,-9.16,1.11,-11.79,4.95,171.58,6,-2.33,0.62,-9.59,-736.81,9.38,31.56,41.25,-9.19,23.88,0.56,0.53,0.41,-0.47,67.4,76.88,-24.31,0,0,0,0,0
767.99,Coasting,0,0,0,0,0,0,0,0,0,400.46,96991.06,22.49,-758755712,390771488,-9.16,1.11,-11.79,4.95,171.58,6,-1.72,0.22,-9.27,-735.44,8.88,31.62,41.25,-9.19,23.88,0.6,0.5,0.44,-0.45,61.19,76.64,-23.38,0,0,0,0,0
768.01,Coasting,0,0,0,0,0,0,0,0,0,400.46,96991.06,22.49,-758755712,390771488,-9.16,1.11,-11.79,4.95,171.58,6,-2.17,-0.38,-9.58,-733.56,7.94,32.06,41.25,-9.19,23.88,0.63,0.46,0.47,-0.42,55.05,76.42,-22.4,0,0,0,0,0
768.01,Coasting,0,0,0,0,0,0,0,0,0,400.46,96991.06,22.49,-758755712,390771488,-9.16,1.11,-11.79,4.95,171.58,6,-2.44,-1.13,-9.38,-732.31,7.31,32.31,41.25,-23,12.75,0.66,0.42,0.49,-0.38,49,76.22,-21.35,0,0,0,0,0
768.02,Coasting,0,0,0,0,0,0,0,0,0,400.46,96991.06,22.49,-758755712,390771488,-9.16,1.11,-11.79,4.95,171.58,6,-0.35,-0.1,-8.85,-730.81,6.44,32.56,41.25,-23,12.75,0.68,0.39,0.51,-0.35,43.01,76.04,-20.24,0,0,0,0,0
768.03,Coasting,0,0,0,0,0,0,0,0,0,430.75,96991.06,22.49,-758755712,390771488,-9.16,1.11,-11.79,4.95,171.58,6,-0.52,-0.42,-9.17,-729.81,5.25,31.31,41.25,-23,12.75,0.71,0.34,0.53,-0.32,36.99,75.88,-19.18,0,0,0,0,0
768.04,Coasting,0,0,0,0,0,0,0,0,0,430.75,96640.16,20.61,-758755712,390771488,-9.16,1.11,-11.79,4.95,171.58,6,-0.51,-0.71,-9.16,-727.94,4.94,30.19,41.25,-23,12.75,0.73,0.3,0.55,-0.28,31.02,75.76,-18.07,0,0,0,0,0
