Time (ms),Stage,PosX (m),PosY (m),PosZ (m),VeloX (m/s),VeloY (m/s),VeloZ (m/s),AccelX (m/s^2),AccelY (m/s^2),AccelZ (m/s^2),Bar Altitude,Bar Pressure,Bar Temperature,GPS Longitude,GPS Latitude,GPS Altitude,GPS PosX,GPS PosY,GPS PosZ,GPS Heading Angle,GPS Satellites,IMU AccelX,IMU AccelY,IMU AccelZ,IMU AngVeloX,IMU AngVeloY,IMU AngVeloZ,IMU MagX,IMU MagY,IMU MagZ,IMU OrientationW,IMU OrientationX,IMU OrientationY,IMU OrientationZ,IMU Roll,IMU Pitch,IMU Yaw,PWM,Target Lat,Target Long,Goal Angle,BNO Calibration Sys,BNO Calibration Accel,BNO Calibration Gryo,BNO Calibration Mag
3750.76,Pre Launch,,,,,,,0,-0.05,9.74,5.85,101685.05,39.12,-761065984,389987040,-20.15,4.79,0.28,-17.04,149.56,21,0.01,-0.05,9.74,-0.06,-0.12,-0.06,-29.19,27.69,101.25,0.47,-0.54,-0.52,0.46,-97.34,0.96,88.1,0,0,0,-45,0,0,3,0
3750.77,Pre Launch,,,,,,,0,0.02,9.74,5.85,101685.05,39.12,-761065984,389987040,-20.15,4.79,0.28,-17.04,149.56,21,-0.01,0.02,9.74,-0.06,-0.19,0,-29.19,27.69,101.25,0.47,-0.54,-0.52,0.46,-97.34,0.96,88.1,0,0,0,-45,0,0,3,0
3750.78,Pre Launch,,,,,,,0,0.06,9.75,5.64,101687.59,39.12,-761065984,389987040,-20.15,4.79,0.28,-17.04,149.56,21,-0.03,0.06,9.75,-0.06,0,-0.06,-29.19,27.69,101.25,0.47,-0.54,-0.52,0.46,-97.34,0.96,88.1,0,0,0,-45,0,0,3,0
3750.79,Pre Launch,,,,,,,0,0.02,9.74,5.64,101687.59,39.12,-761065984,389987040,-20.15,4.79,0.28,-17.04,149.56,21,0.03,0.02,9.74,-0.12,0.06,0.12,-29.19,27.69,101.25,0.47,-0.54,-0.52,0.46,-97.34,0.96,88.1,0,0,0,-45,0,0,3,0
3750.8,Pre Launch,,,,,,,0,-0.03,9.78,5.64,101687.59,39.12,-761065984,389987040,-20.15,4.79,0.28,-17.04,149.56,21,0.03,-0.03,9.78,-0.06,0.19,0.06,-29.19,27.69,101.25,0.47,-0.54,-0.52,0.46,-97.34,0.96,88.1,0,0,0,-45,0,0,3,0
3750.81,Pre Launch,,,,,,,0,0,9.74,5.64,101687.59,39.12,-761065984,389987040,-20.15,4.79,0.28,-17.04,149.56,21,0.02,0,9.74,-0.06,0.25,-0.12,-31.5,27,103.69,0.47,-0.54,-0.52,0.46,-97.34,0.96,88.1,0,0,0,-45,0,0,3,0
3750.82,Pre Launch,,,,,,,0,0.04,9.75,5.64,101687.59,39.12,-761065984,389987040,-20.15,4.79,0.28,-17.04,149.56,21,0.03,0.04,9.75,0.06,0.12,-0.12,-31.5,27,103.69,0.47,-0.54,-0.52,0.46,-97.34,0.96,88.1,0,0,0,-45,0,0,3,0
3750.83,Pre Launch,,,,,,,0,0.18,9.76,5.64,101687.59,39.12,-761065984,389987040,-20.15,4.79,0.28,-17.04,149.56,21,0.02,0.18,9.76,0.12,-0.19,0.06,-31.5,27,103.69,0.47,-0.54,-0.52,0.46,-97.34,0.96,88.1,0,0,0,-45,0,0,3,0
3750.84,Pre Launch,,,,,,,0,0,9.74,5.64,101687.59,39.12,-761065984,389987040,-20.15,4.79,0.28,-17.04,149.56,21,0,0,9.74,-0.06,-0.31,0,-31.5,27,103.69,0.47,-0.54,-0.52,0.46,-97.34,0.96,88.1,0,0,0,-45,0,0,3,0
3750.85,Pre Launch,,,,,,,0,-0.03,9.77,5.46,101689.76,39.12,-761065984,389987040,-20.15,4.79,0.28,-17.04,149.56,21,0,-0.03,9.77,0.06,-0.12,0,-31.5,27,103.69,0.47,-0.54,-0.52,0.46,-97.34,0.96,88.1,0,0,0,-45,0,0,3,0
3750.86,Pre Launch,,,,,,,0,0.01,9.77,5.46,101689.76,39.12,-761065984,389987040,-20.15,4.79,0.28,-17.04,149.56,21,0.05,0.01,9.77,0,-0.06,0,-31.5,27.69,102.88,0.47,-0.54,-0.52,0.46,-97.34,0.96,88.1,0,0,0,-45,0,0,3,0
3750.87,Pre Launch,,,,,,,0,0.04,11.06,5.46,101689.76,39.12,-761065984,389987040,-20.15,4.79,0.28,-17.04,149.56,21,0.02,0.04,11.06,-1.5,0.62,0,-31.5,27.69,102.88,0.47,-0.54,-0.52,0.46,-97.35,0.96,88.09,0,0,0,-45,0,0,3,0
3750.88,Pre Launch,,,,,,,0,-0.62,27.95,5.46,101689.76,39.12,-761065984,389987040,-20.15,4.79,0.28,-17.04,149.56,21,-0.7,-0.62,27.95,-2.94,2.12,-1.25,-31.5,27.69,102.88,0.47,-0.54,-0.52,0.46,-97.38,0.94,88.07,0,0,0,-45,0,0,3,0
3750.89,Pre Launch,,,,,,,0,0.62,26.06,5.46,101689.76,39.12,-761065984,389987040,-20.15,4.79,0.28,-17.04,149.56,21,-0.05,0.62,26.06,-1.81,2.19,-1.81,-31.5,27.69,102.88,0.47,-0.54,-0.52,0.46,-97.4,0.92,88.06,0,0,0,-45,0,0,3,0
3750.9,Powered Ascent,,,,,,,0,0.78,30.15,5.46,101689.76,39.12,-761065984,389987040,-20.15,4.79,0.28,-17.04,149.56,21,-0.21,0.78,30.15,-3.12,6.12,-0.44,-31.5,27.69,102.88,0.47,-0.54,-0.52,0.46,-97.43,0.91,88,0,0,0,-45,0,0,3,0
3751.31,Powered Ascent,,,,,,,0,-0.47,39.76,10.23,101632.23,39.12,-761065856,389986944,-19.25,5.81,-0.57,-16.15,127.11,12,1.34,-0.47,39.76,1.06,6.31,0.88,-93,42.25,159.56,0.5,-0.58,-0.49,0.43,-97.81,0.4,80.79,0,0,0,-45,0,0,3,0
3751.54,Powered Ascent,,,,,,,0,-1.78,39.81,20.17,101512.59,38.72,-761065856,389986944,-19.25,5.81,-0.57,-16.15,127.11,12,0.76,-1.78,39.81,-10.19,30.75,2.81,-91.69,42.56,160.25,0.52,-0.61,-0.45,0.39,-98.41,0.1,72.98,0,0,0,-45,0,0,3,0
3751.55,Powered Ascent,,,,,,,0,-2.28,39.81,20.17,101512.59,38.72,-761065856,389986944,-19.25,5.81,-0.57,-16.15,127.11,12,0.5,-2.28,39.81,-10.31,29.25,3.19,-91.69,42.56,160.25,0.53,-0.61,-0.45,0.39,-98.5,0.09,72.7,0,0,0,-45,0,0,3,0
3751.56,Powered Ascent,,,,,,,0,-2.29,39.8,20.17,101512.59,38.72,-761065856,389986944,-19.25,5.81,-0.57,-16.15,127.11,12,0.29,-2.29,39.8,-10.38,27.25,2.94,-91.69,42.56,160.25,0.53,-0.61,-0.45,0.39,-98.6,0.08,72.43,0,0,0,-45,0,0,3,0
3751.57,Powered Ascent,,,,,,,0,-2.12,39.74,22.07,101512.59,38.72,-761065856,389986944,-19.25,5.81,-0.57,-16.15,127.11,12,-0.13,-2.12,39.74,-10.81,26.5,1.88,-86.75,42.88,156.38,0.53,-0.61,-0.45,0.38,-98.71,0.06,72.17,0,0,0,-45,0,0,3,0
3751.58,Powered Ascent,,,,,,,0,-1.41,39.71,21.75,101493.58,38.75,-761065856,389986944,-19.25,5.81,-0.57,-16.15,127.11,12,-0.22,-1.41,39.71,-12.38,25.56,1.69,-86.75,42.88,156.38,0.53,-0.61,-0.45,0.38,-98.83,0.03,71.93,0,0,0,-45,0,0,3,0
3751.58,Powered Ascent,,,,,,,0,-1.45,39.77,21.75,101493.58,38.75,-761065856,389986944,-19.25,5.81,-0.57,-16.15,127.11,12,0.17,-1.45,39.77,-13.75,24.06,1.62,-86.75,42.88,156.38,0.53,-0.62,-0.45,0.38,-98.96,0.01,71.7,0,0,0,-45,0,0,3,0
3751.59,Powered Ascent,,,,,,,0,-1.67,39.82,21.75,101493.58,38.75,-761065856,389986944,-19.25,5.81,-0.57,-16.15,127.11,12,0.35,-1.67,39.82,-14.62,22.62,2.31,-86.75,42.88,156.38,0.53,-0.62,-0.44,0.38,-99.1,0,71.47,0,0,0,-45,0,0,3,0
3751.6,Powered Ascent,,,,,,,0,-2.22,39.82,21.75,101493.58,38.75,-761065856,389986944,-19.25,5.81,-0.57,-16.15,127.11,12,0.02,-2.22,39.82,-14.94,21.62,2.69,-86.75,42.88,156.38,0.53,-0.62,-0.44,0.38,-99.25,-0.01,71.26,0,0,0,-45,0,0,3,0
3751.61,Powered Ascent,,,,,,,0,-2.19,39.82,21.75,101493.58,38.75,-761065856,389986944,-19.25,5.81,-0.57,-16.15,127.11,12,-0.09,-2.19,39.82,-14.94,21.62,2.69,-83.06,42.5,151.69,0.53,-0.62,-0.44,0.38,-99.39,-0.01,71.07,0,0,0,-45,0,0,3,0
3751.62,Powered Ascent,,,,,,,0,-1.89,39.75,21.75,101493.58,38.75,-761065856,389986944,-19.25,5.81,-0.57,-16.15,127.11,12,-0.54,-1.89,39.75,-14.75,20.06,2,-83.06,42.5,151.69,0.53,-0.62,-0.44,0.38,-99.39,-0.01,71.07,0,0,0,-45,0,0,3,0
3751.63,Powered Ascent,,,,,,,0,-1.75,39.72,21.75,101493.58,38.75,-761065856,389986944,-19.25,5.81,-0.57,-16.15,127.11,12,-0.82,-1.75,39.72,-15.94,19.75,1.56,-83.06,42.5,151.69,0.53,-0.62,-0.44,0.37,-99.71,-0.06,70.68,0,0,0,-45,0,0,3,0
3751.64,Powered Ascent,,,,,,,0,-1.3,39.74,18.58,101531.67,39.11,-761065856,389986944,-19.25,5.81,-0.57,-16.15,127.11,12,-0.61,-1.3,39.74,-18.25,20.62,2.44,-83.06,42.5,151.69,0.53,-0.62,-0.44,0.37,-99.89,-0.06,70.48,0,0,0,-45,0,0,3,0
3751.65,Powered Ascent,,,,,,,0,-1.74,39.83,18.58,101531.67,39.11,-761065856,389986944,-19.25,5.81,-0.57,-16.15,127.11,12,-0.35,-1.74,39.83,-18.12,20.56,2.62,-83.06,42.5,151.69,0.53,-0.63,-0.44,0.37,-100.07,-0.07,70.28,0,0,0,-45,0,0,3,0
3751.66,Powered Ascent,,,,,,,0,-1.79,39.83,18.58,101531.67,39.11,-761065856,389986944,-19.25,5.81,-0.57,-16.15,127.11,12,-0.52,-1.79,39.83,-18.12,20.56,2.62,-78.06,43.88,145.88,0.53,-0.63,-0.44,0.37,-100.25,-0.08,70.07,0,0,0,-45,0,0,3,0
3751.67,Powered Ascent,,,,,,,0,-1.82,39.8,18.58,101531.67,39.11,-761065856,389986944,-19.25,5.81,-0.57,-16.15,127.11,12,-0.88,-1.82,39.8,-18.94,20.88,2.62,-78.06,43.88,145.88,0.53,-0.63,-0.44,0.37,-100.25,-0.08,70.07,0,0,0,-45,0,0,3,0
3751.68,Powered Ascent,,,,,,,0,-1.34,39.7,18.58,101531.67,39.11,-761065856,389986944,-19.25,5.81,-0.57,-16.15,127.11,12,-1.4,-1.34,39.7,-19.38,21.88,2.38,-78.06,43.88,145.88,0.52,-0.63,-0.44,0.36,-100.64,-0.11,69.65,0,0,0,-45,0,0,3,0
3751.69,Powered Ascent,,,,,,,0,-1.15,39.72,18.58,101531.67,39.11,-761065856,389986944,-19.25,5.81,-0.57,-16.15,127.11,12,-1.33,-1.15,39.72,-21,22.06,2.56,-78.06,43.88,145.88,0.52,-0.63,-0.44,0.36,-100.85,-0.12,69.44,0,0,0,-45,0,0,3,0
3751.7,Powered Ascent,,,,,,,0,-1.21,39.8,20.77,101505.37,39.11,-761065856,389986944,-19.25,5.81,-0.57,-16.15,127.11,12,-1.07,-1.21,39.8,-22.75,21.19,3.06,-78.06,43.88,145.88,0.52,-0.63,-0.44,0.36,-101.07,-0.13,69.24,0,0,0,-45,0,0,3,0
3751.71,Powered Ascent,,,,,,,0,-1.53,39.85,20.77,101505.37,39.11,-761065856,389986944,-19.25,5.81,-0.57,-16.15,127.11,12,-1.05,-1.53,39.85,-22.75,21.19,3.06,-78.06,43.88,145.88,0.52,-0.64,-0.44,0.36,-101.3,-0.14,69.03,0,0,0,-45,0,0,3,0
3751.72,Powered Ascent,,,,,,,0,-1.66,39.81,20.77,101505.37,39.11,-761065856,389986944,-19.25,5.81,-0.57,-16.15,127.11,12,-1.49,-1.66,39.81,-22.75,21.19,3.06,-76,43.88,141.06,0.52,-0.64,-0.44,0.36,-101.3,-0.14,69.03,0,0,0,-45,0,0,3,0
3751.73,Powered Ascent,,,,,,,0,-1.29,39.71,20.77,101505.37,39.11,-761065856,389986944,-19.25,5.81,-0.57,-16.15,127.11,12,-2.03,-1.29,39.71,-22.56,21.75,2.69,-76,43.88,141.06,0.52,-0.64,-0.44,0.35,-101.75,-0.18,68.6,0,0,0,-45,0,0,3,0
3751.74,Powered Ascent,,,,,,,0,-0.99,39.67,20.77,101505.37,39.11,-761065856,389986944,-19.25,5.81,-0.57,-16.15,127.11,12,-2.25,-0.99,39.67,-24.12,22.19,2.69,-76,43.88,141.06,0.52,-0.64,-0.44,0.35,-101.99,-0.2,68.38,0,0,0,-45,0,0,3,0
3751.75,Powered Ascent,,,,,,,0,-0.96,39.75,20.77,101505.37,39.11,-761065856,389986944,-19.25,5.81,-0.57,-16.15,127.11,12,-2.01,-0.96,39.75,-26,22.19,3.56,-76,43.88,141.06,0.52,-0.64,-0.44,0.35,-102.24,-0.21,68.16,0,0,0,-45,0,0,3,0
3751.76,Powered Ascent,,,,,,,0,-1.25,39.78,20.77,101505.37,39.11,-761065856,389986944,-19.25,5.81,-0.57,-16.15,127.11,12,-2.09,-1.25,39.78,-26,22.19,3.56,-76,43.88,141.06,0.52,-0.65,-0.44,0.35,-102.49,-0.22,67.95,0,0,0,-45,0,0,3,0
3751.77,Powered Ascent,,,,,,,0,-1.45,39.8,23.05,101477.83,39.1,-761065856,389986944,-19.25,5.81,-0.57,-16.15,127.11,12,-2.25,-1.45,39.8,-26,22.19,3.44,-73.38,46.38,137.75,0.52,-0.65,-0.44,0.35,-102.49,-0.22,67.95,0,0,0,-45,0,0,3,0
3751.78,Powered Ascent,,,,,,,0,-1.15,39.74,23.05,101477.83,39.1,-761065856,389986944,-19.25,5.81,-0.57,-16.15,127.11,12,-2.59,-1.15,39.74,-26,21.94,3,-73.38,46.38,137.75,0.52,-0.65,-0.44,0.34,-103,-0.25,67.53,0,0,0,-45,0,0,3,0
3751.79,Powered Ascent,,,,,,,0,-0.69,39.66,23.05,101477.83,39.1,-761065856,389986944,-19.25,5.81,-0.57,-16.15,127.11,12,-2.93,-0.69,39.66,-26.56,21.56,2.69,-73.38,46.38,137.75,0.52,-0.65,-0.44,0.34,-103.26,-0.27,67.32,0,0,0,-45,0,0,3,0
3751.8,Powered Ascent,,,,,,,0,-0.59,39.68,23.05,101477.83,39.1,-761065856,389986944,-19.25,5.81,-0.57,-16.15,127.11,12,-2.96,-0.59,39.68,-28.19,19.94,3.25,-73.38,46.38,137.75,0.52,-0.65,-0.44,0.34,-103.53,-0.29,67.13,0,0,0,-45,0,0,3,0
3751.81,Powered Ascent,,,,,,,0,-0.62,39.73,23.05,101477.83,39.1,-761065856,389986944,-19.25,5.81,-0.57,-16.15,127.11,12,-2.86,-0.62,39.73,-28.19,19.94,3.25,-73.38,46.38,137.75,0.52,-0.66,-0.44,0.34,-103.81,-0.3,66.93,0,0,0,-45,0,0,3,0
3751.82,Powered Ascent,,,,,,,0,-0.88,39.73,23.05,101477.83,39.1,-761065856,389986944,-19.25,5.81,-0.57,-16.15,127.11,12,-3.13,-0.88,39.73,-28.62,19.38,3.31,-70.69,48.06,132.69,0.52,-0.66,-0.44,0.34,-103.81,-0.3,66.93,0,0,0,-45,0,0,3,0
3751.83,Powered Ascent,,,,,,,0,-0.72,39.71,23.05,101477.83,39.1,-761065856,389986944,-19.25,5.81,-0.57,-16.15,127.11,12,-3.35,-0.72,39.71,-28.44,19.19,3.31,-70.69,48.06,132.69,0.51,-0.66,-0.43,0.33,-104.36,-0.33,66.56,0,0,0,-45,0,0,3,0
3751.84,Powered Ascent,,,,,,,0,-0.41,39.64,25.54,101447.94,39.1,-761065856,389986944,-19.25,5.81,-0.57,-16.15,127.11,12,-3.64,-0.41,39.64,-28.62,19.31,3.06,-70.69,48.06,132.69,0.51,-0.66,-0.43,0.33,-104.64,-0.35,66.37,0,0,0,-45,0,0,3,0
3751.85,Powered Ascent,,,,,,,0,-0.2,39.59,25.54,101447.94,39.1,-761065856,389986944,-19.25,5.81,-0.57,-16.15,127.11,12,-3.91,-0.2,39.59,-29.94,18.69,3.69,-70.69,48.06,132.69,0.51,-0.66,-0.43,0.33,-104.93,-0.36,66.18,0,0,0,-45,0,0,3,0
3751.86,Powered Ascent,,,,,,,0,-0.27,39.64,25.54,101447.94,39.1,-761065856,389986944,-19.25,5.81,-0.57,-16.15,127.11,12,-3.88,-0.27,39.64,-29.94,18.69,3.69,-70.69,48.06,132.69,0.51,-0.67,-0.43,0.33,-105.22,-0.37,66.01,0,0,0,-45,0,0,3,0
3751.87,Powered Ascent,,,,,,,0,-0.37,39.65,25.54,101447.94,39.1,-761065856,389986944,-19.25,5.81,-0.57,-16.15,127.11,12,-4.02,-0.37,39.65,-30.12,18.12,3.75,-69.75,50.38,129.38,0.51,-0.67,-0.43,0.33,-105.22,-0.37,66.01,0,0,0,-45,0,0,3,0
3751.88,Powered Ascent,,,,,,,0,-0.43,39.64,25.54,101447.94,39.1,-761065856,389986944,-19.25,5.81,-0.57,-16.15,127.11,12,-4.26,-0.43,39.64,-30.31,17.75,3.75,-69.75,50.38,129.38,0.51,-0.67,-0.43,0.32,-105.8,-0.4,65.66,0,0,0,-45,0,0,3,0
3751.89,Powered Ascent,,,,,,,0,-0.05,39.58,25.54,101447.94,39.1,-761065856,389986944,-19.25,5.81,-0.57,-16.15,127.11,12,-4.48,-0.05,39.58,-30.12,17.5,3.31,-69.75,50.38,129.38,0.51,-0.67,-0.43,0.32,-106.09,-0.41,65.49,0,0,0,-45,0,0,3,0
3751.9,Powered Ascent,,,,,,,0,0.26,39.53,27.89,101419.64,39.09,-761065856,389986944,-19.25,5.81,-0.57,-16.15,127.11,12,-4.69,0.26,39.53,-30.62,17.06,3.81,-69.75,50.38,129.38,0.51,-0.67,-0.43,0.32,-106.39,-0.41,65.32,0,0,0,-45,0,0,3,0
3751.92,Powered Ascent,,,,,,,0,0.29,39.51,27.89,101419.64,39.09,-761065856,389986944,-19.25,5.81,-0.57,-16.15,127.11,12,-4.86,0.29,39.51,-30.62,17.06,3.81,-69.75,50.38,129.38,0.5,-0.67,-0.43,0.32,-106.69,-0.43,65.15,0,0,0,-45,0,0,3,0
3751.92,Powered Ascent,,,,,,,0,0.26,39.54,27.89,101419.64,39.09,-761065856,389986944,-19.25,5.81,-0.57,-16.15,127.11,12,-4.93,0.26,39.54,-30.88,16.88,3.94,-68.25,53.19,124.25,0.5,-0.67,-0.43,0.32,-106.69,-0.43,65.15,0,0,0,-45,0,0,3,0
3751.93,Powered Ascent,,,,,,,0,0.17,39.51,27.89,101419.64,39.09,-761065856,389986944,-19.25,5.81,-0.57,-16.15,127.11,12,-5.21,0.17,39.51,-31.06,16.62,4.06,-68.25,53.19,124.25,0.5,-0.68,-0.43,0.32,-107.29,-0.44,64.82,0,0,0,-45,0,0,3,0
3751.94,Powered Ascent,,,,,,,0,0.37,39.45,27.89,101419.64,39.09,-761065856,389986944,-19.25,5.81,-0.57,-16.15,127.11,12,-5.46,0.37,39.45,-31.06,16,4.12,-68.25,53.19,124.25,0.5,-0.68,-0.43,0.31,-107.59,-0.45,64.67,0,0,0,-45,0,0,3,0
3751.95,Powered Ascent,,,,,,,0,0.56,39.43,27.89,101419.64,39.09,-761065856,389986944,-19.25,5.81,-0.57,-16.15,127.11,12,-5.59,0.56,39.43,-30.81,15.19,4.19,-68.25,53.19,124.25,0.5,-0.68,-0.43,0.31,-107.88,-0.45,64.52,0,0,0,-45,0,0,3,0
3751.97,Powered Ascent,,,,,,,0,0.54,39.43,30.75,101419.64,39.09,-761065856,389986944,-19.25,5.81,-0.57,-16.15,127.11,12,-5.72,0.54,39.43,-30.81,15.19,4.19,-68.25,53.19,124.25,0.5,-0.68,-0.43,0.31,-108.18,-0.46,64.37,0,0,0,-45,0,0,3,0
,,,,,,,,,,,,,,,,,,,,,,,,,,,,,,,,,,,,,,,,,,,,,
3751.97,Powered Ascent,,,,,,,0,0.6,39.41,30.75,101385.24,39.09,-761065856,389986944,-19.25,5.81,-0.57,-16.15,127.11,12,-5.91,0.6,39.41,-31,14.69,4.31,-67.69,54.75,121.25,0.5,-0.68,-0.43,0.31,-108.18,-0.46,64.37,0,0,0,-45,0,0,3,0
3751.98,Powered Ascent,,,,,,,0,0.96,39.37,30.75,101385.24,39.09,-761065856,389986944,-19.25,5.81,-0.57,-16.15,127.11,12,-6.02,0.96,39.37,-30.44,14.5,4.25,-67.69,54.75,121.25,0.5,-0.69,-0.43,0.31,-108.76,-0.46,64.08,0,0,0,-45,0,0,3,0
3751.99,Powered Ascent,,,,,,,0,0.98,39.31,30.75,101385.24,39.09,-761065856,389986944,-19.25,5.81,-0.57,-16.15,127.11,12,-6.32,0.98,39.31,-30.38,14.44,4.62,-67.69,54.75,121.25,0.49,-0.69,-0.43,0.3,-109.06,-0.47,63.93,0,0,0,-45,0,0,3,0
3752,Powered Ascent,,,,,,,0,0.91,39.29,30.75,101385.24,39.09,-761065856,389986944,-19.25,5.81,-0.57,-16.15,127.11,12,-6.53,0.91,39.29,-30.5,13.38,4.81,-67.69,54.75,121.25,0.49,-0.69,-0.43,0.3,-109.36,-0.47,63.79,0,0,0,-45,0,0,3,0
3752.01,Powered Ascent,,,,,,,0,0.99,39.29,30.75,101385.24,39.09,-761065856,389986944,-19.25,5.81,-0.57,-16.15,127.11,12,-6.63,0.99,39.29,-30.5,13.38,4.81,-67.69,54.75,121.25,0.49,-0.69,-0.43,0.3,-109.65,-0.46,63.66,0,0,0,-45,0,0,3,0
3752.02,Powered Ascent,,,,,,,0,1.03,39.31,30.75,101385.24,39.09,-761065856,389986944,-19.25,5.81,-0.57,-16.15,127.11,12,-6.66,1.03,39.31,-30,13.44,4.62,-68.25,56,118.19,0.49,-0.69,-0.43,0.3,-109.65,-0.46,63.66,0,0,0,-45,0,0,3,0
3752.03,Powered Ascent,,,,,,,0,1.5,39.26,34.15,101344.36,39.09,-761065856,389986944,-19.25,5.81,-0.57,-16.15,127.11,12,-6.73,1.5,39.26,-29.56,14.06,4.88,-68.25,56,118.19,0.49,-0.7,-0.43,0.3,-110.21,-0.47,63.36,0,0,0,-45,0,0,3,0
3752.04,Powered Ascent,,,,,,,0,1.53,39.2,34.15,101344.36,39.09,-761065856,389986944,-19.25,5.81,-0.57,-16.15,127.11,12,-7,1.53,39.2,-29.06,15.31,5.06,-68.25,56,118.19,0.49,-0.7,-0.43,0.3,-110.49,-0.47,63.2,0,0,0,-45,0,0,3,0
3752.05,Powered Ascent,,,,,,,0,1.55,39.11,34.15,101344.36,39.09,-761065856,389986944,-19.25,5.81,-0.57,-16.15,127.11,12,-7.38,1.55,39.11,-28.31,14.75,5.44,-68.25,56,118.19,0.49,-0.7,-0.43,0.29,-110.76,-0.47,63.04,0,0,0,-45,0,0,3,0
3752.07,Powered Ascent,,,,,,,0,1.6,39.06,34.15,101344.36,39.09,-761065856,389986944,-19.25,5.81,-0.57,-16.15,127.11,12,-7.62,1.6,39.06,-28.31,14.75,5.44,-68.25,56,118.19,0.48,-0.7,-0.43,0.29,-111.03,-0.48,62.89,0,0,0,-45,0,0,3,0
3752.07,Powered Ascent,,,,,,,0,1.64,39.02,34.15,101344.36,39.09,-761065856,389986944,-19.25,5.81,-0.57,-16.15,127.11,12,-7.81,1.64,39.02,-28.06,15.62,5.25,-67.06,58.25,116.38,0.48,-0.7,-0.43,0.29,-111.03,-0.48,62.89,0,0,0,-45,0,0,3,0
3752.08,Powered Ascent,,,,,,,0,1.94,38.95,34.15,101344.36,39.09,-761065856,389986944,-19.25,5.81,-0.57,-16.15,127.11,12,-7.98,1.94,38.95,-28.06,16.06,5.19,-67.06,58.25,116.38,0.48,-0.71,-0.43,0.29,-111.56,-0.49,62.56,0,0,0,-45,0,0,3,0
3752.09,Powered Ascent,,,,,,,0,2.13,38.89,34.15,101344.36,39.09,-761065856,389986944,-19.25,5.81,-0.57,-16.15,127.11,12,-8.15,2.13,38.89,-27.31,16,5.25,-67.06,58.25,116.38,0.48,-0.71,-0.43,0.29,-111.82,-0.5,62.4,0,0,0,-45,0,0,3,0
3752.1,Powered Ascent,,,,,,,0,1.81,38.83,37.94,101298.74,39.09,-761065856,389986944,-19.25,5.81,-0.57,-16.15,127.11,12,-8.57,1.81,38.83,-26.12,14.69,5.56,-67.06,58.25,116.38,0.48,-0.71,-0.43,0.29,-112.07,-0.5,62.25,0,0,0,-45,0,0,3,0
3752.12,Powered Ascent,,,,,,,0,1.78,38.74,37.94,101298.74,39.09,-761065856,389986944,-19.25,5.81,-0.57,-16.15,127.11,12,-8.92,1.78,38.74,-26.12,14.69,5.56,-67.06,58.25,116.38,0.48,-0.71,-0.43,0.28,-112.32,-0.51,62.09,0,0,0,-45,0,0,3,0
3752.12,Powered Ascent,,,,,,,0,2.02,38.72,37.94,101298.74,39.09,-761065856,389986944,-19.25,5.81,-0.57,-16.15,127.11,12,-8.96,2.02,38.72,-25.75,15.56,5.19,-68.38,58.56,112.69,0.48,-0.71,-0.43,0.28,-112.32,-0.51,62.09,0,0,0,-45,0,0,3,0
3752.13,Powered Ascent,,,,,,,0,2.32,38.71,37.94,101298.74,39.09,-761065856,389986944,-19.25,5.81,-0.57,-16.15,127.11,12,-8.92,2.32,38.71,-25.25,18.38,4.75,-68.38,58.56,112.69,0.48,-0.71,-0.43,0.28,-112.8,-0.57,61.7,0,0,0,-45,0,0,3,0
3752.14,Powered Ascent,,,,,,,0,2.89,38.74,37.94,101298.74,39.09,-761065856,389986944,-19.25,5.81,-0.57,-16.15,127.11,12,-8.62,2.89,38.74,-24.81,21.62,5.31,-68.38,58.56,112.69,0.48,-0.72,-0.43,0.28,-113.03,-0.6,61.46,0,0,0,-45,0,0,3,0
3752.16,Powered Ascent,,,,,,,0,2.74,38.72,37.94,101298.74,39.09,-761065856,389986944,-19.25,5.81,-0.57,-16.15,127.11,12,-8.86,2.74,38.72,-22.69,24.19,6.88,-68.38,58.56,112.69,0.48,-0.72,-0.43,0.28,-113.25,-0.63,61.22,0,0,0,-45,0,0,3,0
3752.17,Powered Ascent,,,,,,,0,2.79,38.74,41.73,101253.27,39.08,-761065856,389986944,-19.25,5.81,-0.57,-16.15,127.11,12,-8.85,2.79,38.74,-22.69,24.19,6.88,-68.38,58.56,112.69,0.48,-0.72,-0.43,0.27,-113.45,-0.67,60.95,0,0,0,-45,0,0,3,0
3752.18,Powered Ascent,,,,,,,0,2.79,38.6,41.73,101253.27,39.08,-761065856,389986944,-19.25,5.81,-0.57,-16.15,127.11,12,-9.27,2.79,38.6,-21.19,27.12,7.5,-68.06,61.06,110.25,0.48,-0.72,-0.43,0.27,-113.45,-0.67,60.95,0,0,0,-45,0,0,3,0
3752.18,Powered Ascent,,,,,,,0,3.07,38.5,41.73,101253.27,39.08,-761065856,389986944,-19.25,5.81,-0.57,-16.15,127.11,12,-9.48,3.07,38.5,-19.88,29.44,7.94,-68.06,61.06,110.25,0.47,-0.72,-0.42,0.27,-113.82,-0.76,60.34,0,0,0,-45,0,0,3,0
3752.19,Powered Ascent,,,,,,,0,3.01,38.5,41.73,101253.27,39.08,-761065856,389986944,-19.25,5.81,-0.57,-16.15,127.11,12,-9.57,3.01,38.5,-19.12,31.94,8.12,-68.06,61.06,110.25,0.47,-0.72,-0.42,0.27,-113.99,-0.82,60.02,0,0,0,-45,0,0,3,0
3752.21,Powered Ascent,,,,,,,0,3,38.49,41.73,101253.27,39.08,-761065856,389986944,-19.25,5.81,-0.57,-16.15,127.11,12,-9.65,3,38.49,-17.19,36.25,9.12,-68.06,61.06,110.25,0.47,-0.73,-0.42,0.26,-114.16,-0.88,59.66,0,0,0,-45,0,0,3,0
3752.22,Powered Ascent,,,,,,,0,3.07,38.52,41.73,101253.27,39.08,-761065856,389986944,-19.25,5.81,-0.57,-16.15,127.11,12,-9.59,3.07,38.52,-17.19,36.25,9.12,-68.06,61.06,110.25,0.47,-0.73,-0.42,0.26,-114.3,-0.96,59.26,0,0,0,-45,0,0,3,0
3752.23,Powered Ascent,,,,,,,0,3.15,38.49,41.73,101253.27,39.08,-761065856,389986944,-19.25,5.81,-0.57,-16.15,127.11,12,-9.69,3.15,38.49,-15.75,41.06,9.56,-68.88,61.88,108.5,0.47,-0.73,-0.42,0.26,-114.3,-0.96,59.26,0,0,0,-45,0,0,3,0
3752.23,Powered Ascent,,,,,,,0,3.56,38.39,45.78,101204.61,39.08,-761065856,389986944,-19.25,5.81,-0.57,-16.15,127.11,12,-9.77,3.56,38.39,-14.12,43.94,10.19,-68.88,61.88,108.5,0.48,-0.73,-0.41,0.26,-114.55,-1.14,58.38,0,0,0,-45,0,0,3,0
3752.25,Powered Ascent,,,,,,,0,3.72,38.39,45.78,101204.61,39.08,-761065856,389986944,-19.25,5.81,-0.57,-16.15,127.11,12,-9.72,3.72,38.39,-12.75,45.94,10.5,-68.88,61.88,108.5,0.48,-0.73,-0.41,0.25,-114.65,-1.23,57.91,0,0,0,-45,0,0,3,0
3752.26,Powered Ascent,,,,,,,0,3.75,38.39,45.78,101204.61,39.08,-761065856,389986944,-19.25,5.81,-0.57,-16.15,127.11,12,-9.75,3.75,38.39,-10.81,51.38,11.81,-68.88,61.88,108.5,0.48,-0.74,-0.41,0.25,-114.74,-1.33,57.41,0,0,0,-45,0,0,3,0
3752.27,Powered Ascent,,,,,,,0,3.18,38.44,45.78,101204.61,39.08,-761065856,389986944,-19.25,5.81,-0.57,-16.15,127.11,12,-10,3.18,38.44,-10.81,51.38,11.81,-68.88,61.88,108.5,0.48,-0.74,-0.41,0.25,-114.83,-1.44,56.9,0,0,0,-45,0,0,3,0
3752.27,Powered Ascent,,,,,,,0,3.31,38.54,45.78,101204.61,39.08,-761065856,389986944,-19.25,5.81,-0.57,-16.15,127.11,12,-9.71,3.31,38.54,-9.56,52.25,11.81,-69.69,63.06,104,0.48,-0.74,-0.41,0.25,-114.83,-1.44,56.9,0,0,0,-45,0,0,3,0
3752.28,Powered Ascent,,,,,,,0,3.49,38.43,45.78,101204.61,39.08,-761065856,389986944,-19.25,5.81,-0.57,-16.15,127.11,12,-9.91,3.49,38.43,-7.81,55.31,11.81,-69.69,63.06,104,0.48,-0.74,-0.4,0.24,-114.93,-1.68,55.83,0,0,0,-45,0,0,3,0
3752.29,Powered Ascent,,,,,,,0,3.54,38.43,49.59,101204.61,39.08,-761065856,389986944,-19.25,5.81,-0.57,-16.15,127.11,12,-9.91,3.54,38.43,-6.38,56.38,12.31,-69.69,63.06,104,0.48,-0.74,-0.4,0.24,-114.98,-1.8,55.28,0,0,0,-45,0,0,3,0
3752.31,Powered Ascent,,,,,,,0,3.41,38.29,49.59,101158.85,39.08,-761065856,389986944,-19.25,5.81,-0.57,-16.15,127.11,12,-10.37,3.41,38.29,-4.69,55.69,12.44,-69.69,63.06,104,0.48,-0.74,-0.4,0.23,-115,-1.92,54.74,0,0,0,-45,0,0,3,0
3752.32,Powered Ascent,,,,,,,0,2.92,38.27,49.59,101158.85,39.08,-761065408,389986496,-17.96,10.05,-4.58,-14.85,135.75,8,-10.74,2.92,38.27,-4.69,55.69,12.44,-69.69,63.06,104,0.48,-0.75,-0.39,0.23,-115.02,-2.05,54.19,0,0,0,-45,0,0,3,0
3752.54,Powered Ascent,,,,,,,0,4.19,38.34,66.99,100950.12,38.67,-761065408,389986496,-17.96,10.05,-4.58,-14.85,135.75,8,-9.78,4.19,38.34,6.44,84.25,25.31,-67.5,69,87.88,0.53,-0.78,-0.29,0.14,-113.01,-4.92,37.53,0,0,0,-45,0,0,3,0
3752.55,Powered Ascent,,,,,,,0,4.56,38.37,66.99,100950.12,38.67,-761065408,389986496,-17.96,10.05,-4.58,-14.85,135.75,8,-9.36,4.56,38.37,6.25,85,25.19,-67.5,69,87.88,0.54,-0.78,-0.28,0.14,-112.87,-5.01,36.68,0,0,0,-45,0,0,3,0
3752.56,Powered Ascent,,,,,,,0,4.86,38.36,71.94,100950.12,38.67,-761065408,389986496,-17.96,10.05,-4.58,-14.85,135.75,8,-9.13,4.86,38.36,6.75,85.06,25.62,-67.5,69,87.88,0.54,-0.78,-0.28,0.13,-112.73,-5.1,35.82,0,0,0,-45,0,0,3,0
3752.57,Powered Ascent,,,,,,,0,4.88,38.38,66.6,100954.82,39.08,-761065408,389986496,-17.96,10.05,-4.58,-14.85,135.75,8,-9.05,4.88,38.38,6.75,85.06,25.62,-67.5,69,87.88,0.54,-0.79,-0.27,0.13,-112.59,-5.18,34.95,0,0,0,-45,0,0,3,0
3752.58,Powered Ascent,,,,,,,0,4.61,38.33,66.6,100954.82,39.08,-761065408,389986496,-17.96,10.05,-4.58,-14.85,135.75,8,-9.45,4.61,38.33,6.19,85.56,26.75,-62.19,67.69,82.19,0.54,-0.79,-0.27,0.13,-112.59,-5.18,34.95,0,0,0,-45,0,0,3,0
3752.59,Powered Ascent,,,,,,,0,4.72,38.26,66.6,100954.82,39.08,-761065408,389986496,-17.96,10.05,-4.58,-14.85,135.75,8,-9.59,4.72,38.26,6.56,85.19,27.06,-62.19,67.69,82.19,0.54,-0.79,-0.26,0.12,-112.31,-5.32,33.22,0,0,0,-45,0,0,3,0
3752.6,Powered Ascent,,,,,,,0,4.45,38.41,66.6,100954.82,39.08,-761065408,389986496,-17.96,10.05,-4.58,-14.85,135.75,8,-9.34,4.45,38.41,5.56,85.5,26.81,-62.19,67.69,82.19,0.55,-0.79,-0.26,0.12,-112.17,-5.4,32.36,0,0,0,-45,0,0,3,0
3752.61,Powered Ascent,,,,,,,0,4.53,38.45,66.6,100954.82,39.08,-761065408,389986496,-17.96,10.05,-4.58,-14.85,135.75,8,-9.12,4.53,38.45,5.56,86.88,26.62,-62.19,67.69,82.19,0.55,-0.79,-0.25,0.11,-112.04,-5.48,31.48,0,0,0,-45,0,0,3,0
3752.62,Powered Ascent,,,,,,,0,4.43,38.56,66.6,100954.82,39.08,-761065408,389986496,-17.96,10.05,-4.58,-14.85,135.75,8,-8.88,4.43,38.56,5.56,86.88,26.62,-62.19,67.69,82.19,0.55,-0.79,-0.24,0.11,-111.9,-5.56,30.59,0,0,0,-45,0,0,3,0
3752.63,Powered Ascent,,,,,,,0,4.99,38.45,71.41,100897.2,39.07,-761065408,389986496,-17.96,10.05,-4.58,-14.85,135.75,8,-8.69,4.99,38.45,5.69,87.81,26.62,-58.19,65.75,76,0.55,-0.79,-0.24,0.11,-111.9,-5.56,30.59,0,0,0,-45,0,0,3,0
3752.64,Powered Ascent,,,,,,,0,5.05,38.4,71.41,100897.2,39.07,-761065408,389986496,-17.96,10.05,-4.58,-14.85,135.75,8,-8.78,5.05,38.4,5.81,88.44,27.31,-58.19,65.75,76,0.55,-0.79,-0.23,0.1,-111.61,-5.7,28.78,0,0,0,-45,0,0,3,0
3752.65,Powered Ascent,,,,,,,0,5.07,38.38,71.41,100897.2,39.07,-761065408,389986496,-17.96,10.05,-4.58,-14.85,135.75,8,-8.84,5.07,38.38,5.44,89.12,28.06,-58.19,65.75,76,0.56,-0.79,-0.23,0.1,-111.47,-5.76,27.87,0,0,0,-45,0,0,3,0
3752.66,Powered Ascent,,,,,,,0,5.03,38.32,71.41,100897.2,39.07,-761065408,389986496,-17.96,10.05,-4.58,-14.85,135.75,8,-9.11,5.03,38.32,4.56,90.56,27.31,-58.19,65.75,76,0.56,-0.8,-0.22,0.09,-111.33,-5.83,26.95,0,0,0,-45,0,0,3,0
3752.67,Powered Ascent,,,,,,,0,5.23,38.34,71.41,100897.2,39.07,-761065408,389986496,-17.96,10.05,-4.58,-14.85,135.75,8,-8.82,5.23,38.34,4.56,90.56,27.31,-58.19,65.75,76,0.56,-0.8,-0.21,0.09,-111.2,-5.91,26.02,0,0,0,-45,0,0,3,0
3752.68,Powered Ascent,,,,,,,0,5.28,38.42,71.41,100897.2,39.07,-761065408,389986496,-17.96,10.05,-4.58,-14.85,135.75,8,-8.48,5.28,38.42,4.38,91.69,26.69,-52.88,63.38,73,0.56,-0.8,-0.21,0.09,-111.2,-5.91,26.02,0,0,0,-45,0,0,3,0
3752.69,Powered Ascent,,,,,,,0,5.54,38.39,71.41,100897.2,39.07,-761065408,389986496,-17.96,10.05,-4.58,-14.85,135.75,8,-8.31,5.54,38.39,4.19,92.62,26.56,-52.88,63.38,73,0.56,-0.8,-0.2,0.08,-110.92,-6.08,24.15,0,0,0,-45,0,0,3,0
3752.7,Powered Ascent,,,,,,,0,5.55,38.4,77.4,100825.52,39.06,-761065408,389986496,-17.96,10.05,-4.58,-14.85,135.75,8,-8.26,5.55,38.4,3.94,93.62,26.81,-52.88,63.38,73,0.56,-0.8,-0.2,0.07,-110.77,-6.16,23.19,0,0,0,-45,0,0,3,0
3752.71,Powered Ascent,,,,,,,0,5.64,38.28,77.4,100825.52,39.06,-761065408,389986496,-17.96,10.05,-4.58,-14.85,135.75,8,-8.62,5.64,38.28,3.44,95.88,26.88,-52.88,63.38,73,0.57,-0.8,-0.19,0.07,-110.64,-6.25,22.23,0,0,0,-45,0,0,3,0
3752.72,Powered Ascent,,,,,,,0,5.64,38.33,77.4,100825.52,39.06,-761065408,389986496,-17.96,10.05,-4.58,-14.85,135.75,8,-8.45,5.64,38.33,3.44,95.88,26.88,-52.88,63.38,73,0.57,-0.8,-0.18,0.06,-110.5,-6.34,21.25,0,0,0,-45,0,0,3,0
3752.73,Powered Ascent,,,,,,,0,5.78,38.28,77.4,100825.52,39.06,-761065408,389986496,-17.96,10.05,-4.58,-14.85,135.75,8,-8.46,5.78,38.28,3.12,97.75,26.12,-49,61.38,65.88,0.57,-0.8,-0.18,0.06,-110.5,-6.34,21.25,0,0,0,-45,0,0,3,0
3752.74,Powered Ascent,,,,,,,0,5.33,38.52,77.4,100825.52,39.06,-761065408,389986496,-17.96,10.05,-4.58,-14.85,135.75,8,-8.09,5.33,38.52,3.69,98.62,25.25,-49,61.38,65.88,0.57,-0.8,-0.17,0.05,-110.2,-6.56,19.26,0,0,0,-45,0,0,3,0
3752.75,Powered Ascent,,,,,,,0,5.45,38.41,77.4,100825.52,39.06,-761065408,389986496,-17.96,10.05,-4.58,-14.85,135.75,8,-8.37,5.45,38.41,4.06,100.25,25.12,-49,61.38,65.88,0.57,-0.8,-0.16,0.04,-110.04,-6.67,18.24,0,0,0,-45,0,0,3,0
3752.76,Powered Ascent,,,,,,,0,5.58,38.37,82.18,100768.23,39.06,-761065408,389986496,-17.96,10.05,-4.58,-14.85,135.75,8,-8.41,5.58,38.37,4.88,105.56,24.38,-49,61.38,65.88,0.57,-0.8,-0.16,0.04,-109.87,-6.8,17.2,0,0,0,-45,0,0,3,0
3752.77,Powered Ascent,,,,,,,0,5.77,38.3,82.18,100768.23,39.06,-761065408,389986496,-17.96,10.05,-4.58,-14.85,135.75,8,-8.48,5.77,38.3,4.88,105.56,24.38,-49,61.38,65.88,0.58,-0.8,-0.15,0.03,-109.69,-6.93,16.13,0,0,0,-45,0,0,3,0
3752.78,Powered Ascent,,,,,,,0,5.56,38.45,82.18,100768.23,39.06,-761065408,389986496,-17.96,10.05,-4.58,-14.85,135.75,8,-8.09,5.56,38.45,4.88,107.44,23.75,-46.75,60.5,60.88,0.58,-0.8,-0.15,0.03,-109.69,-6.93,16.13,0,0,0,-45,0,0,3,0
3752.79,Powered Ascent,,,,,,,0,5.51,38.5,82.18,100768.23,39.06,-761065408,389986496,-17.96,10.05,-4.58,-14.85,135.75,8,-7.91,5.51,38.5,5.25,108.94,23.38,-46.75,60.5,60.88,0.58,-0.8,-0.14,0.02,-109.32,-7.22,13.96,0,0,0,-45,0,0,3,0
3752.8,Powered Ascent,,,,,,,0,5.71,38.51,82.18,100768.23,39.06,-761065408,389986496,-17.96,10.05,-4.58,-14.85,135.75,8,-7.59,5.71,38.51,5.94,110.69,23.25,-46.75,60.5,60.88,0.58,-0.8,-0.13,0.01,-109.1,-7.36,12.85,0,0,0,-45,0,0,3,0
,,,,,,,,,,,,,,,,,,,,,,,,,,,,,,,,,,,,,,,,,,,,,
3752.81,Powered Ascent,,,,,,,0,6.33,38.27,82.18,100768.23,39.06,-761065408,389986496,-17.96,10.05,-4.58,-14.85,135.75,8,-7.82,6.33,38.27,6.5,113.44,23.75,-46.75,60.5,60.88,0.58,-0.8,-0.12,0.01,-108.9,-7.5,11.73,0,0,0,-45,0,0,3,0
3752.82,Powered Ascent,,,,,,,0,6.46,38.23,82.18,100768.23,39.06,-761065408,389986496,-17.96,10.05,-4.58,-14.85,135.75,8,-7.79,6.46,38.23,6.5,113.44,23.75,-46.75,60.5,60.88,0.58,-0.8,-0.11,0,-108.68,-7.64,10.6,0,0,0,-45,0,0,3,0
3752.83,Powered Ascent,,,,,,,0,5.97,38.41,87.86,100700.34,39.06,-761065408,389986496,-17.96,10.05,-4.58,-14.85,135.75,8,-7.65,5.97,38.41,6.56,114.25,23.62,-44.56,58.5,55.69,0.58,-0.8,-0.11,0,-108.68,-7.64,10.6,0,0,0,-45,0,0,3,0
3752.84,Powered Ascent,,,,,,,0,5.87,38.48,87.86,100700.34,39.06,-761065408,389986496,-17.96,10.05,-4.58,-14.85,135.75,8,-7.44,5.87,38.48,6.38,115.88,23.56,-44.56,58.5,55.69,0.59,-0.8,-0.1,-0.01,-108.24,-7.92,8.29,0,0,0,-45,0,0,3,0
3752.85,Powered Ascent,,,,,,,0,5.84,38.49,87.86,100700.34,39.06,-761065408,389986496,-17.96,10.05,-4.58,-14.85,135.75,8,-7.39,5.84,38.49,6.94,117.5,23.44,-44.56,58.5,55.69,0.59,-0.8,-0.09,-0.02,-108,-8.07,7.12,0,0,0,-45,0,0,3,0
3752.86,Powered Ascent,,,,,,,0,5.98,38.5,87.86,100700.34,39.06,-761065408,389986496,-17.96,10.05,-4.58,-14.85,135.75,8,-7.06,5.98,38.5,8.75,118.62,23.06,-44.56,58.5,55.69,0.59,-0.8,-0.08,-0.03,-107.75,-8.21,5.95,0,0,0,-45,0,0,3,0
3752.87,Powered Ascent,,,,,,,0,6.21,38.39,87.86,100700.34,39.06,-761065408,389986496,-17.96,10.05,-4.58,-14.85,135.75,8,-7.29,6.21,38.39,8.75,118.62,23.06,-44.56,58.5,55.69,0.59,-0.8,-0.08,-0.03,-107.49,-8.34,4.78,0,0,0,-45,0,0,3,0
3752.88,Powered Ascent,,,,,,,0,5.77,38.44,87.86,100700.34,39.06,-761065408,389986496,-17.96,10.05,-4.58,-14.85,135.75,8,-7.77,5.77,38.44,9,118.38,23.12,-43.75,57.5,51,0.59,-0.8,-0.08,-0.03,-107.49,-8.34,4.78,0,0,0,-45,0,0,3,0
3752.89,Powered Ascent,,,,,,,0,5.46,38.52,87.86,100700.34,39.06,-761065408,389986496,-17.96,10.05,-4.58,-14.85,135.75,8,-7.81,5.46,38.52,9.69,120,22.38,-43.75,57.5,51,0.59,-0.8,-0.06,-0.05,-106.94,-8.63,2.39,0,0,0,-45,0,0,3,0
3752.9,Powered Ascent,,,,,,,0,5.64,38.56,93.46,100633.37,39.05,-761065408,389986496,-17.96,10.05,-4.58,-14.85,135.75,8,-7.23,5.64,38.56,10.5,121.56,21.5,-43.75,57.5,51,0.6,-0.8,-0.05,-0.06,-106.64,-8.77,1.18,0,0,0,-45,0,0,3,0
3752.91,Powered Ascent,,,,,,,0,5.97,38.47,93.46,100633.37,39.05,-761065408,389986496,-17.96,10.05,-4.58,-14.85,135.75,8,-7.11,5.97,38.47,11.75,123.75,20.81,-43.75,57.5,51,0.6,-0.8,-0.05,-0.06,-106.34,-8.92,-0.04,0,0,0,-45,0,0,3,0
3752.92,Powered Ascent,,,,,,,0,6.15,38.39,93.46,100633.37,39.05,-761065408,389986496,-17.96,10.05,-4.58,-14.85,135.75,8,-7.25,6.15,38.39,11.75,123.75,20.81,-43.75,57.5,51,0.6,-0.8,-0.04,-0.07,-106.03,-9.07,-1.28,0,0,0,-45,0,0,3,0
3752.93,Powered Ascent,,,,,,,0,5.83,38.43,93.46,100633.37,39.05,-761065408,389986496,-17.96,10.05,-4.58,-14.85,135.75,8,-7.57,5.83,38.43,12.19,124.94,20.62,-41.75,56.38,45.56,0.6,-0.8,-0.04,-0.07,-106.03,-9.07,-1.28,0,0,0,-45,0,0,3,0
3752.94,Powered Ascent,,,,,,,0,5.61,38.54,93.46,100633.37,39.05,-761065408,389986496,-17.96,10.05,-4.58,-14.85,135.75,8,-7.19,5.61,38.54,12,125.81,20.38,-41.75,56.38,45.56,0.6,-0.79,-0.02,-0.08,-105.39,-9.35,-3.77,0,0,0,-45,0,0,3,0
3752.95,Powered Ascent,,,,,,,0,5.49,38.55,93.46,100633.37,39.05,-761065408,389986496,-17.96,10.05,-4.58,-14.85,135.75,8,-7.34,5.49,38.55,13.44,126.81,19.38,-41.75,56.38,45.56,0.6,-0.79,-0.02,-0.09,-105.06,-9.49,-5.01,0,0,0,-45,0,0,3,0
3752.96,Powered Ascent,,,,,,,0,5.54,38.56,99.1,100565.92,39.05,-761065408,389986496,-17.96,10.05,-4.58,-14.85,135.75,8,-7.11,5.54,38.56,13.75,126.81,19.31,-41.75,56.38,45.56,0.6,-0.79,-0.01,-0.1,-104.72,-9.62,-6.27,0,0,0,-45,0,0,3,0
3752.97,Powered Ascent,,,,,,,0,5.94,38.44,99.1,100565.92,39.05,-761065408,389986496,-17.96,10.05,-4.58,-14.85,135.75,8,-7.05,5.94,38.44,13.75,126.81,19.31,-41.75,56.38,45.56,0.61,-0.79,0,-0.11,-104.37,-9.75,-7.53,0,0,0,-45,0,0,3,0
3752.98,Powered Ascent,,,,,,,0,5.71,38.49,99.1,100565.92,39.05,-761065408,389986496,-17.96,10.05,-4.58,-14.85,135.75,8,-7.1,5.71,38.49,13.88,127.81,19.31,-42.5,56.25,40.25,0.61,-0.79,0,-0.11,-104.37,-9.75,-7.53,0,0,0,-45,0,0,3,0
3752.99,Powered Ascent,,,,,,,0,5.62,38.53,99.1,100565.92,39.05,-761065408,389986496,-17.96,10.05,-4.58,-14.85,135.75,8,-6.96,5.62,38.53,13.62,128.88,19.31,-42.5,56.25,40.25,0.61,-0.78,0.02,-0.12,-103.67,-10,-10.08,0,0,0,-45,0,0,3,0
3753,Powered Ascent,,,,,,,0,5.22,38.44,99.1,100565.92,39.05,-761065408,389986496,-17.96,10.05,-4.58,-14.85,135.75,8,-7.49,5.22,38.44,13.81,129.06,19.12,-42.5,56.25,40.25,0.61,-0.78,0.02,-0.13,-103.31,-10.11,-11.36,0,0,0,-45,0,0,3,0
3753.01,Powered Ascent,,,,,,,0,5.01,38.44,99.1,100565.92,39.05,-761065408,389986496,-17.96,10.05,-4.58,-14.85,135.75,8,-7.3,5.01,38.44,14.44,130.31,18.88,-42.5,56.25,40.25,0.61,-0.78,0.03,-0.14,-102.95,-10.22,-12.65,0,0,0,-45,0,0,3,0
3753.02,Coasting,,,,,,,0,5.04,37.97,104.9,100565.92,39.05,-761065408,389986496,-17.96,10.05,-4.58,-14.85,135.75,8,-7.09,5.04,37.97,14.44,130.31,18.88,-42.5,56.25,40.25,0.61,-0.78,0.04,-0.15,-102.56,-10.32,-13.95,0,0,0,-45,0,0,3,0
3753.43,Coasting,,,,,,,0,3.39,36.84,148.37,99978.69,38.64,-761064384,389985920,-16.01,19.96,-9.97,-12.91,116.37,8,-8.67,3.39,36.84,13.06,142.5,21.06,-29.69,48.56,-4.38,0.57,-0.59,0.35,-0.45,-87.04,-7.14,-69.27,0,0,0,-45,0,0,3,0
3753.55,Coasting,,,,,,,0,2.62,36.4,158.28,99894.09,39.06,-761064384,389985920,-16.01,19.96,-9.97,-12.91,116.37,8,-8.55,2.62,36.4,4.31,146.81,19.31,-22.88,46.06,-11.69,0.52,-0.5,0.45,-0.52,-84.35,-3.08,-87.27,0,0,0,-45,0,0,3,0
3753.56,Coasting,,,,,,,0,2.24,36.79,158.28,99860.89,39.06,-761064384,389985920,-16.01,19.96,-9.97,-12.91,116.37,8,-8.63,2.24,36.79,3.75,147.25,18.62,-22.88,46.06,-11.69,0.52,-0.49,0.46,-0.53,-84.24,-2.77,-88.68,0,0,0,-45,0,0,3,0
3753.57,Coasting,,,,,,,0,3.01,36.57,158.28,99860.89,39.06,-761064384,389985920,-16.01,19.96,-9.97,-12.91,116.37,8,-8.62,3.01,36.57,2.94,147.94,18,-22.88,46.06,-11.69,0.51,-0.48,0.46,-0.54,-84.16,-2.46,-90.09,0,0,0,-45,0,0,3,0
3753.58,Coasting,,,,,,,0,2.43,36.67,158.28,99860.89,39.06,-761064384,389985920,-16.01,19.96,-9.97,-12.91,116.37,8,-8.26,2.43,36.67,2.56,148.38,16.88,-18.75,44.88,-14.69,0.51,-0.48,0.46,-0.54,-84.16,-2.46,-90.09,0,0,0,-45,0,0,3,0
3753.59,Coasting,,,,,,,0,2.51,36.62,158.28,99860.89,39.06,-761064384,389985920,-16.01,19.96,-9.97,-12.91,116.37,8,-8.4,2.51,36.62,2.38,149.06,15.88,-18.75,44.88,-14.69,0.5,-0.47,0.48,-0.55,-84.01,-1.86,-92.94,0,0,0,-45,0,0,3,0
3753.6,Coasting,,,,,,,0,2.44,36.88,158.28,99860.89,39.06,-761064384,389985920,-16.01,19.96,-9.97,-12.91,116.37,8,-8.05,2.44,36.88,1.75,149.38,15.31,-18.75,44.88,-14.69,0.5,-0.46,0.48,-0.55,-83.95,-1.56,-94.36,0,0,0,-45,0,0,3,0
3753.61,Coasting,,,,,,,0,2.4,36.45,158.28,99860.89,39.06,-761064384,389985920,-16.01,19.96,-9.97,-12.91,116.37,8,-7.92,2.4,36.45,-0.12,150.31,14.06,-18.75,44.88,-14.69,0.49,-0.45,0.49,-0.56,-83.92,-1.28,-95.8,0,0,0,-45,0,0,3,0
3753.62,Coasting,,,,,,,0,2.84,36.68,165.04,99780.56,39.05,-761064384,389985920,-16.01,19.96,-9.97,-12.91,116.37,8,-8.45,2.84,36.68,-0.12,150.31,14.06,-18.75,44.88,-14.69,0.49,-0.45,0.5,-0.56,-83.89,-1,-97.24,0,0,0,-45,0,0,3,0
3753.63,Coasting,,,,,,,0,2.86,36.53,165.04,99780.56,39.05,-761064384,389985920,-16.01,19.96,-9.97,-12.91,116.37,8,-8.51,2.86,36.53,-0.5,150.81,13.5,-15.69,45.06,-15.5,0.49,-0.45,0.5,-0.56,-83.89,-1,-97.24,0,0,0,-45,0,0,3,0
3753.64,Coasting,,,,,,,0,3.23,36.85,165.04,99780.56,39.05,-761064384,389985920,-16.01,19.96,-9.97,-12.91,116.37,8,-8.58,3.23,36.85,-1.06,150.94,12.5,-15.69,45.06,-15.5,0.48,-0.43,0.51,-0.57,-83.87,-0.45,-100.12,0,0,0,-45,0,0,3,0
3753.65,Coasting,,,,,,,0,3.18,33.56,165.04,99780.56,39.05,-761064384,389985920,-16.01,19.96,-9.97,-12.91,116.37,8,-7.86,3.18,33.56,0.06,150.62,11.44,-15.69,45.06,-15.5,0.47,-0.42,0.52,-0.58,-83.87,-0.18,-101.56,0,0,0,-45,0,0,3,0
3753.66,Coasting,,,,,,,0,2.66,35.11,165.04,99780.56,39.05,-761064384,389985920,-16.01,19.96,-9.97,-12.91,116.37,8,-8.26,2.66,35.11,-0.88,152.06,10.88,-15.69,45.06,-15.5,0.46,-0.42,0.52,-0.58,-83.88,0.08,-103.02,0,0,0,-45,0,0,3,0
3753.68,Coasting,,,,,,,0,3.01,36.51,165.04,99780.56,39.05,-761064384,389985920,-16.01,19.96,-9.97,-12.91,116.37,8,-8.07,3.01,36.51,-0.88,152.06,10.88,-15.69,45.06,-15.5,0.46,-0.41,0.53,-0.59,-83.89,0.34,-104.46,0,0,0,-45,0,0,3,0
3753.68,Coasting,,,,,,,0,2.32,35.69,171.76,99780.56,39.04,-761064384,389985920,-16.01,19.96,-9.97,-12.91,116.37,8,-7.07,2.32,35.69,-0.88,152,10.5,-10.5,45.06,-18,0.46,-0.41,0.53,-0.59,-83.89,0.34,-104.46,0,0,0,-45,0,0,3,0
3753.69,Coasting,,,,,,,0,2.69,35.6,171.76,99700.79,39.04,-761064384,389985920,-16.01,19.96,-9.97,-12.91,116.37,8,-7.73,2.69,35.6,-2.31,152.56,10.94,-10.5,45.06,-18,0.44,-0.39,0.54,-0.6,-83.97,0.86,-107.38,0,0,0,-45,0,0,3,0
3753.7,Coasting,,,,,,,0,2.49,36.07,171.76,99700.79,39.04,-761064384,389985920,-16.01,19.96,-9.97,-12.91,116.37,8,-7.85,2.49,36.07,-2.62,152.19,10.94,-10.5,45.06,-18,0.44,-0.38,0.55,-0.6,-84.03,1.12,-108.83,0,0,0,-45,0,0,3,0
3753.72,Coasting,,,,,,,0,2.73,35.3,171.76,99700.79,39.04,-761064384,389985920,-16.01,19.96,-9.97,-12.91,116.37,8,-7.92,2.73,35.3,-1.88,151,11.19,-10.5,45.06,-18,0.43,-0.38,0.55,-0.6,-84.08,1.38,-110.28,0,0,0,-45,0,0,3,0
3753.73,Coasting,,,,,,,0,2.92,35.83,171.76,99700.79,39.04,-761064384,389985920,-16.01,19.96,-9.97,-12.91,116.37,8,-7.72,2.92,35.83,-1.88,151,11.19,-10.5,45.06,-18,0.42,-0.37,0.56,-0.61,-84.14,1.64,-111.71,0,0,0,-45,0,0,3,0
3753.73,Coasting,,,,,,,0,3.13,35.3,171.76,99700.79,39.04,-761064384,389985920,-16.01,19.96,-9.97,-12.91,116.37,8,-7.47,3.13,35.3,-2.75,150.69,11.81,-7.5,43.75,-18.75,0.42,-0.37,0.56,-0.61,-84.14,1.64,-111.71,0,0,0,-45,0,0,3,0
3753.74,Coasting,,,,,,,0,3.23,35,171.76,99700.79,39.04,-761064384,389985920,-16.01,19.96,-9.97,-12.91,116.37,8,-7.73,3.23,35,-2,150.56,11.44,-7.5,43.75,-18.75,0.41,-0.35,0.57,-0.62,-84.29,2.16,-114.6,0,0,0,-45,0,0,3,0
3753.75,Coasting,,,,,,,0,3.22,34.19,178.21,99624.33,39.04,-761064384,389985920,-16.01,19.96,-9.97,-12.91,116.37,8,-7.34,3.22,34.19,-1.75,151,10.94,-7.5,43.75,-18.75,0.4,-0.34,0.58,-0.62,-84.36,2.41,-116.04,0,0,0,-45,0,0,3,0
3753.76,Coasting,,,,,,,0,2.47,34.08,178.21,99624.33,39.04,-761064384,389985920,-16.01,19.96,-9.97,-12.91,116.37,8,-6.84,2.47,34.08,-1.56,150.62,11.56,-7.5,43.75,-18.75,0.4,-0.33,0.58,-0.62,-84.44,2.66,-117.49,0,0,0,-45,0,0,3,0
3753.78,Coasting,,,,,,,0,2.62,35.48,178.21,99624.33,39.04,-761064384,389985920,-16.01,19.96,-9.97,-12.91,116.37,8,-7.09,2.62,35.48,-1.56,150.62,11.56,-7.5,43.75,-18.75,0.39,-0.33,0.59,-0.63,-84.52,2.92,-118.92,0,0,0,-45,0,0,3,0
3753.78,Coasting,,,,,,,0,2.69,35.68,178.21,99624.33,39.04,-761064384,389985920,-16.01,19.96,-9.97,-12.91,116.37,8,-7.42,2.69,35.68,-1.5,150.25,11.69,-2.06,44.38,-18.06,0.39,-0.33,0.59,-0.63,-84.52,2.92,-118.92,0,0,0,-45,0,0,3,0
3753.79,Coasting,,,,,,,0,3.18,35.36,178.21,99624.33,39.04,-761064384,389985920,-16.01,19.96,-9.97,-12.91,116.37,8,-7.82,3.18,35.36,-2.12,150.06,12.25,-2.06,44.38,-18.06,0.38,-0.31,0.6,-0.64,-84.71,3.43,-121.79,0,0,0,-45,0,0,3,0
3753.8,Coasting,,,,,,,0,2.72,35.08,178.21,99624.33,39.04,-761064384,389985920,-16.01,19.96,-9.97,-12.91,116.37,8,-7.82,2.72,35.08,-1.31,149.56,12.62,-2.06,44.38,-18.06,0.37,-0.3,0.6,-0.64,-84.8,3.68,-123.21,0,0,0,-45,0,0,3,0
3753.81,Coasting,,,,,,,0,2.94,35.05,185.32,99624.33,39.04,-761064384,389985920,-16.01,19.96,-9.97,-12.91,116.37,8,-7.74,2.94,35.05,-0.19,148.44,14.19,-2.06,44.38,-18.06,0.36,-0.29,0.61,-0.64,-84.9,3.95,-124.63,0,0,0,-45,0,0,3,0
3753.83,Coasting,,,,,,,0,3.04,35.1,185.32,99540.07,39.04,-761064384,389985920,-16.01,19.96,-9.97,-12.91,116.37,8,-6.86,3.04,35.1,-0.19,148.44,14.19,-2.06,44.38,-18.06,0.36,-0.28,0.61,-0.65,-84.99,4.22,-126.06,0,0,0,-45,0,0,3,0
3753.83,Coasting,,,,,,,0,2.86,35.19,185.32,99540.07,39.04,-761064384,389985920,-16.01,19.96,-9.97,-12.91,116.37,8,-6.61,2.86,35.19,1.06,148.75,14.38,2.56,44.19,-19.06,0.36,-0.28,0.61,-0.65,-84.99,4.22,-126.06,0,0,0,-45,0,0,3,0
3753.84,Coasting,,,,,,,0,2.82,35.14,185.32,99540.07,39.04,-761064384,389985920,-16.01,19.96,-9.97,-12.91,116.37,8,-6.21,2.82,35.14,0.38,148.69,14.69,2.56,44.19,-19.06,0.34,-0.26,0.62,-0.65,-85.21,4.74,-128.91,0,0,0,-45,0,0,3,0
3753.85,Coasting,,,,,,,0,3.18,35.18,185.32,99540.07,39.04,-761064384,389985920,-16.01,19.96,-9.97,-12.91,116.37,8,-6.42,3.18,35.18,0.19,148.19,14.62,2.56,44.19,-19.06,0.34,-0.26,0.63,-0.65,-85.33,5,-130.33,0,0,0,-45,0,0,3,0
3753.87,Coasting,,,,,,,0,2.84,35.1,185.32,99540.07,39.04,-761064384,389985920,-16.01,19.96,-9.97,-12.91,116.37,8,-6.81,2.84,35.1,0,148.25,14.62,2.56,44.19,-19.06,0.33,-0.25,0.63,-0.66,-85.46,5.26,-131.75,0,0,0,-45,0,0,3,0
3753.88,Coasting,,,,,,,0,3.06,35.05,185.32,99540.07,39.04,-761064384,389985920,-16.01,19.96,-9.97,-12.91,116.37,8,-6.87,3.06,35.05,0,148.25,14.62,2.56,44.19,-19.06,0.32,-0.24,0.64,-0.66,-85.59,5.52,-133.18,0,0,0,-45,0,0,3,0
3753.89,Coasting,,,,,,,0,2.79,34.56,192.73,99452.23,39.04,-761064384,389985920,-16.01,19.96,-9.97,-12.91,116.37,8,-6.89,2.79,34.56,0,147.88,15.06,4.5,44,-18.69,0.32,-0.24,0.64,-0.66,-85.59,5.52,-133.18,0,0,0,-45,0,0,3,0
3753.89,Coasting,,,,,,,0,2.73,35.1,192.73,99452.23,39.04,-761064384,389985920,-16.01,19.96,-9.97,-12.91,116.37,8,-6.77,2.73,35.1,1.19,147.81,16.31,4.5,44,-18.69,0.31,-0.22,0.65,-0.66,-85.85,6.06,-136.02,0,0,0,-45,0,0,3,0
3753.91,Coasting,,,,,,,0,2.88,34.73,192.73,99452.23,39.04,-761064384,389985920,-16.01,19.96,-9.97,-12.91,116.37,8,-6.74,2.88,34.73,2.19,147.81,17.31,4.5,44,-18.69,0.3,-0.21,0.65,-0.67,-85.98,6.33,-137.44,0,0,0,-45,0,0,3,0
3753.92,Coasting,,,,,,,0,3.3,34.48,192.73,99452.23,39.04,-761064384,389985920,-16.01,19.96,-9.97,-12.91,116.37,8,-6.54,3.3,34.48,3.06,146.25,18.62,4.5,44,-18.69,0.29,-0.2,0.65,-0.67,-86.11,6.62,-138.84,0,0,0,-45,0,0,3,0
3753.93,Coasting,,,,,,,0,2.85,34.57,192.73,99452.23,39.04,-761064384,389985920,-16.01,19.96,-9.97,-12.91,116.37,8,-6.6,2.85,34.57,3.06,146.25,18.62,4.5,44,-18.69,0.29,-0.19,0.66,-0.67,-86.25,6.89,-140.25,0,0,0,-45,0,0,3,0
,,,,,,,,,,,,,,,,,,,,,,,,,,,,,,,,,,,,,,,,,,,,,
3753.94,Coasting,,,,,,,0,3.08,35.32,192.73,99452.23,39.04,-761064384,389985920,-16.01,19.96,-9.97,-12.91,116.37,8,-6.23,3.08,35.32,2.62,146.06,19.25,8.38,43.88,-17.56,0.29,-0.19,0.66,-0.67,-86.25,6.89,-140.25,0,0,0,-45,0,0,3,0
3753.94,Coasting,,,,,,,0,3.14,35.11,192.73,99452.23,39.04,-761064384,389985920,-16.01,19.96,-9.97,-12.91,116.37,8,-6.45,3.14,35.11,3.81,145,19,8.38,43.88,-17.56,0.27,-0.17,0.66,-0.68,-86.52,7.44,-143.04,0,0,0,-45,0,0,3,0
3753.96,Coasting,,,,,,,0,2.36,34.75,201.32,99350.62,39.04,-761064384,389985920,-16.01,19.96,-9.97,-12.91,116.37,8,-6.82,2.36,34.75,4.06,143.94,20.88,8.38,43.88,-17.56,0.27,-0.16,0.67,-0.68,-86.66,7.73,-144.44,0,0,0,-45,0,0,3,0
3753.97,Coasting,,,,,,,0,2.41,34.25,201.32,99350.62,39.04,-761064384,389985920,-16.01,19.96,-9.97,-12.91,116.37,8,-7.01,2.41,34.25,5.12,143.75,22.38,8.38,43.88,-17.56,0.26,-0.15,0.67,-0.68,-86.8,8.02,-145.82,0,0,0,-45,0,0,3,0
3753.98,Coasting,,,,,,,0,2.8,33.41,201.32,99350.62,39.04,-761064384,389985920,-16.01,19.96,-9.97,-12.91,116.37,8,-6.56,2.8,33.41,5.12,143.75,22.38,8.38,43.88,-17.56,0.25,-0.14,0.67,-0.68,-86.95,8.33,-147.2,0,0,0,-45,0,0,3,0
3753.99,Coasting,,,,,,,0,2.58,32.6,201.32,99350.62,39.04,-761064384,389985920,-16.01,19.96,-9.97,-12.91,116.37,8,-6.49,2.58,32.6,5.25,142,23.69,12.25,43.5,-16.56,0.25,-0.14,0.67,-0.68,-86.95,8.33,-147.2,0,0,0,-45,0,0,3,0
3753.99,Coasting,,,,,,,0,2.84,31.96,201.32,99350.62,39.04,-761064384,389985920,-16.01,19.96,-9.97,-12.91,116.37,8,-6.24,2.84,31.96,6.56,140.44,24.62,12.25,43.5,-16.56,0.24,-0.12,0.68,-0.68,-87.23,8.96,-149.91,0,0,0,-45,0,0,3,0
3754,Coasting,,,,,,,0,2.61,30.87,201.32,99350.62,39.04,-761064384,389985920,-16.01,19.96,-9.97,-12.91,116.37,8,-5.94,2.61,30.87,6.5,139.56,26.06,12.25,43.5,-16.56,0.23,-0.11,0.68,-0.68,-87.37,9.28,-151.27,0,0,0,-45,0,0,3,0
3754.02,Coasting,,,,,,,0,2.64,29.41,209.04,99259.36,39.04,-761064384,389985920,-16.01,19.96,-9.97,-12.91,116.37,8,-5.43,2.64,29.41,7.69,140,27.75,12.25,43.5,-16.56,0.23,-0.1,0.68,-0.69,-87.52,9.61,-152.63,0,0,0,-45,0,0,3,0
3754.03,Coasting,,,,,,,0,1.84,28.78,209.04,99259.36,39.04,-761064384,389985920,-16.01,19.96,-9.97,-12.91,116.37,8,-5.36,1.84,28.78,7.69,140,27.75,12.25,43.5,-16.56,0.22,-0.09,0.69,-0.69,-87.68,9.94,-153.99,0,0,0,-45,0,0,3,0
3754.04,Coasting,,,,,,,0,1.94,27.36,209.04,99259.36,39.04,-761064384,389985920,-16.01,19.96,-9.97,-12.91,116.37,8,-5.67,1.94,27.36,7.81,140.25,27.62,16.75,42.56,-15.19,0.22,-0.09,0.69,-0.69,-87.68,9.94,-153.99,0,0,0,-45,0,0,3,0
3754.04,Coasting,,,,,,,0,1.93,26.65,209.04,99259.36,39.04,-761064384,389985920,-16.01,19.96,-9.97,-12.91,116.37,8,-5.81,1.93,26.65,8,139.38,28.94,16.75,42.56,-15.19,0.21,-0.07,0.69,-0.69,-88,10.61,-156.7,0,0,0,-45,0,0,3,0
3754.06,Coasting,,,,,,,0,2.03,25.9,209.04,99259.36,39.04,-761064384,389985920,-16.01,19.96,-9.97,-12.91,116.37,8,-5.65,2.03,25.9,8.12,139.06,30.19,16.75,42.56,-15.19,0.2,-0.06,0.69,-0.69,-88.18,10.96,-158.06,0,0,0,-45,0,0,3,0
3754.07,Coasting,,,,,,,0,2.06,25.36,209.04,99259.36,39.04,-761064384,389985920,-16.01,19.96,-9.97,-12.91,116.37,8,-5.68,2.06,25.36,8.81,137.56,33,16.75,42.56,-15.19,0.2,-0.05,0.69,-0.69,-88.35,11.32,-159.41,0,0,0,-45,0,0,3,0
3754.08,Coasting,,,,,,,0,1.95,24.17,209.04,99259.36,39.04,-761064384,389985920,-16.01,19.96,-9.97,-12.91,116.37,8,-5.07,1.95,24.17,8.81,137.56,33,16.75,42.56,-15.19,0.19,-0.04,0.7,-0.69,-88.53,11.69,-160.75,0,0,0,-45,0,0,3,0
3754.09,Coasting,,,,,,,0,1.38,23.46,216.84,99167.13,39.03,-761064384,389985920,-16.01,19.96,-9.97,-12.91,116.37,8,-5.05,1.38,23.46,9.31,137.62,34.31,19.38,40.88,-12.88,0.19,-0.04,0.7,-0.69,-88.53,11.69,-160.75,0,0,0,-45,0,0,3,0
3754.09,Coasting,,,,,,,0,1.46,23.02,216.84,99167.13,39.03,-761064384,389985920,-16.01,19.96,-9.97,-12.91,116.37,8,-5.02,1.46,23.02,9.25,137.75,34.75,19.38,40.88,-12.88,0.18,-0.02,0.7,-0.69,-88.92,12.43,-163.46,0,0,0,-45,0,0,3,0
3754.11,Coasting,,,,,,,0,1.76,22.28,216.84,99167.13,39.03,-761064384,389985920,-16.01,19.96,-9.97,-12.91,116.37,8,-5.1,1.76,22.28,8.94,137.69,35.38,19.38,40.88,-12.88,0.17,-0.01,0.7,-0.69,-89.13,12.8,-164.82,0,0,0,-45,0,0,3,0
3754.12,Coasting,,,,,,,0,1.92,21.38,216.84,99167.13,39.03,-761064384,389985920,-16.01,19.96,-9.97,-12.91,116.37,8,-5.31,1.92,21.38,9.56,138.06,36.56,19.38,40.88,-12.88,0.16,0,0.7,-0.69,-89.34,13.17,-166.19,0,0,0,-45,0,0,3,0
3754.13,Coasting,,,,,,,0,2.16,20.61,216.84,99167.13,39.03,-761064384,389985920,-16.01,19.96,-9.97,-12.91,116.37,8,-4.97,2.16,20.61,9.56,138.06,36.56,19.38,40.88,-12.88,0.16,0.01,0.7,-0.69,-89.56,13.54,-167.57,0,0,0,-45,0,0,3,0
3754.14,Coasting,,,,,,,0,1.85,19.82,216.84,99167.13,39.03,-761064384,389985920,-16.01,19.96,-9.97,-12.91,116.37,8,-4.96,1.85,19.82,10.12,138.81,36.94,22.88,40.38,-10,0.16,0.01,0.7,-0.69,-89.56,13.54,-167.57,0,0,0,-45,0,0,3,0
3754.15,Coasting,,,,,,,0,1.59,18.97,224.47,99167.13,39.03,-761064384,389985920,-16.01,19.96,-9.97,-12.91,116.37,8,-4.3,1.59,18.97,10.12,139.62,37.62,22.88,40.38,-10,0.15,0.03,0.71,-0.69,-90.04,14.28,-170.36,0,0,0,-45,0,0,3,0
3754.16,Coasting,,,,,,,0,0.91,18.45,224.47,99076.98,39.03,-761064384,389985920,-16.01,19.96,-9.97,-12.91,116.37,8,-3.79,0.91,18.45,10.31,140.94,37.31,22.88,40.38,-10,0.14,0.04,0.71,-0.69,-90.28,14.64,-171.77,0,0,0,-45,0,0,3,0
3754.17,Coasting,,,,,,,0,1.21,17.65,224.47,99076.98,39.03,-761064384,389985920,-16.01,19.96,-9.97,-12.91,116.37,8,-3.27,1.21,17.65,9.81,141.69,37.06,22.88,40.38,-10,0.13,0.05,0.71,-0.69,-90.55,14.99,-173.19,0,0,0,-45,0,0,3,0
3754.18,Coasting,,,,,,,0,1.55,15.23,224.47,99076.98,39.03,-761064384,389985920,-16.01,19.96,-9.97,-12.91,116.37,8,-3.55,1.55,15.23,9.81,141.69,37.06,22.88,40.38,-10,0.13,0.06,0.71,-0.69,-90.84,15.31,-174.62,0,0,0,-45,0,0,3,0
3754.19,Coasting,,,,,,,0,1.37,14.21,224.47,99076.98,39.03,-761064384,389985920,-16.01,19.96,-9.97,-12.91,116.37,8,-3.35,1.37,14.21,9.19,142.38,35.56,25.56,40.25,-8.06,0.13,0.06,0.71,-0.69,-90.84,15.31,-174.62,0,0,0,-45,0,0,3,0
3754.2,Coasting,,,,,,,0,1.47,12.95,224.47,99076.98,39.03,-761064384,389985920,-16.01,19.96,-9.97,-12.91,116.37,8,-3.45,1.47,12.95,8.94,143.88,34.62,25.56,40.25,-8.06,0.11,0.08,0.71,-0.69,-91.45,15.94,-177.54,0,0,0,-45,0,0,3,0
3754.21,Coasting,,,,,,,0,1.36,11.86,224.47,99076.98,39.03,-761064384,389985920,-16.01,19.96,-9.97,-12.91,116.37,8,-3.22,1.36,11.86,9.06,145.06,35.31,25.56,40.25,-8.06,0.11,0.09,0.71,-0.69,-91.77,16.25,-179.02,0,0,0,-45,0,0,3,0
3754.22,Coasting,,,,,,,0,0.97,9.36,232.42,98983.23,39.04,-761064384,389985920,-16.01,19.96,-9.97,-12.91,116.37,8,-3.04,0.97,9.36,9.44,145.31,38,25.56,40.25,-8.06,0.1,0.1,0.71,-0.69,-92.09,16.57,179.51,0,0,0,-45,0,0,3,0
3754.23,Coasting,,,,,,,0,0.51,8.44,232.42,98983.23,39.04,-761064384,389985920,-16.01,19.96,-9.97,-12.91,116.37,8,-2.99,0.51,8.44,9.44,145.31,38,25.56,40.25,-8.06,0.09,0.11,0.71,-0.69,-92.42,16.91,178.02,0,0,0,-45,0,0,3,0
3754.24,Coasting,,,,,,,0,0.55,7.4,232.42,98983.23,39.04,-761064384,389985920,-16.01,19.96,-9.97,-12.91,116.37,8,-2.26,0.55,7.4,9.44,144.94,40.38,28.69,39.25,-4.56,0.09,0.11,0.71,-0.69,-92.42,16.91,178.02,0,0,0,-45,0,0,3,0
3754.25,Coasting,,,,,,,0,0.45,5.4,232.42,98983.23,39.04,-761064384,389985920,-16.01,19.96,-9.97,-12.91,116.37,8,-1.54,0.45,5.4,9.56,145.12,42.06,28.69,39.25,-4.56,0.08,0.14,0.71,-0.68,-93.13,17.58,175.04,0,0,0,-45,0,0,3,0
3754.26,Coasting,,,,,,,0,0.46,4.44,232.42,98983.23,39.04,-761064384,389985920,-16.01,19.96,-9.97,-12.91,116.37,8,-1.46,0.46,4.44,9,145.56,41.81,28.69,39.25,-4.56,0.07,0.15,0.71,-0.68,-93.51,17.9,173.53,0,0,0,-45,0,0,3,0
3754.27,Coasting,,,,,,,0,0.47,3.55,232.42,98983.23,39.04,-761064384,389985920,-16.01,19.96,-9.97,-12.91,116.37,8,-1.29,0.47,3.55,8,147.5,40.44,28.69,39.25,-4.56,0.07,0.16,0.71,-0.68,-93.91,18.2,172.01,0,0,0,-45,0,0,3,0
3754.28,Coasting,,,,,,,0,0.34,2.73,239.93,98894.62,39.03,-761064384,389985920,-16.01,19.96,-9.97,-12.91,116.37,8,-1.2,0.34,2.73,8,147.5,40.44,28.69,39.25,-4.56,0.06,0.17,0.71,-0.68,-94.32,18.48,170.47,0,0,0,-45,0,0,3,0
3754.29,Coasting,,,,,,,0,0.24,1.54,239.93,98894.62,39.03,-761064384,389985920,-16.01,19.96,-9.97,-12.91,116.37,8,-1.05,0.24,1.54,6.88,148.12,39.69,31.75,37.88,-1,0.06,0.17,0.71,-0.68,-94.32,18.48,170.47,0,0,0,-45,0,0,3,0
3754.29,Coasting,,,,,,,0,-0.04,1.16,239.93,98894.62,39.03,-761064384,389985920,-16.01,19.96,-9.97,-12.91,116.37,8,-1.11,-0.04,1.16,5.94,147.81,39.06,31.75,37.88,-1,0.05,0.19,0.71,-0.67,-95.2,18.99,167.39,0,0,0,-45,0,0,3,0
3754.31,Coasting,,,,,,,0,0.1,0.57,239.93,98894.62,39.03,-761064384,389985920,-16.01,19.96,-9.97,-12.91,116.37,8,-1.18,0.1,0.57,5.5,148.25,39.19,31.75,37.88,-1,0.04,0.2,0.71,-0.67,-95.67,19.23,165.81,0,0,0,-45,0,0,3,0
3754.32,Coasting,,,,,,,0,0.42,0.15,239.93,98894.62,39.03,-761064384,389985920,-16.01,19.96,-9.97,-12.91,116.37,8,-0.08,0.42,0.15,4.81,151.75,39,31.75,37.88,-1,0.03,0.21,0.71,-0.67,-96.15,19.45,164.22,0,0,0,-45,0,0,3,0
3754.33,Coasting,,,,,,,0,0.57,0.03,239.93,98894.62,39.03,-761064384,389985920,-16.01,19.96,-9.97,-12.91,116.37,8,-0.17,0.57,0.03,4.81,151.75,39,31.75,37.88,-1,0.03,0.22,0.71,-0.67,-96.65,19.65,162.61,0,0,0,-45,0,0,3,0
3754.34,Coasting,,,,,,,0,1.5,-0.24,239.93,98894.62,39.03,-761064384,389985920,-16.01,19.96,-9.97,-12.91,116.37,8,0.5,1.5,-0.24,3.31,153.44,37.44,34.5,38.06,1.25,0.03,0.22,0.71,-0.67,-96.65,19.65,162.61,0,0,0,-45,0,0,3,0
3754.35,Coasting,,,,,,,0,1.54,-0.64,249.53,98781.54,39.03,-761064384,389985920,-16.01,19.96,-9.97,-12.91,116.37,8,0.25,1.54,-0.64,3.31,153.44,37.44,34.5,38.06,1.25,0.01,0.25,0.71,-0.66,-97.68,19.96,159.37,0,0,0,-45,0,0,3,0
3754.36,Coasting,,,,,,,0,1.41,-0.86,249.53,98781.54,39.03,-761064384,389985920,-16.01,19.96,-9.97,-12.91,116.37,8,0.1,1.41,-0.86,4.5,155.25,34,34.5,38.06,1.25,0,0.26,0.71,-0.66,-98.16,20.06,157.72,0,0,0,-45,0,0,3,0
3754.37,Coasting,,,,,,,0,0.86,-1.17,249.53,98781.54,39.03,-761064384,389985920,-16.01,19.96,-9.97,-12.91,116.37,8,0.11,0.86,-1.17,15.69,158.19,30.12,34.5,38.06,1.25,0,0.27,0.71,-0.66,-98.57,20.12,156.06,0,0,0,-45,0,0,3,0
3754.38,Coasting,,,,,,,0,0.57,-1.49,249.53,98781.54,39.03,-761064384,389985920,-16.01,19.96,-9.97,-12.91,116.37,8,-0.43,0.57,-1.49,15.69,158.19,30.12,34.5,38.06,1.25,-0.01,0.28,0.7,-0.65,-99,20.17,154.39,0,0,0,-45,0,0,3,0
3754.39,Coasting,,,,,,,0,0.1,-1.52,249.53,98781.54,39.03,-761064384,389985920,-16.01,19.96,-9.97,-12.91,116.37,8,-0.22,0.1,-1.52,15.19,158.75,29.69,34.75,36.19,5.25,-0.01,0.28,0.7,-0.65,-99,20.17,154.39,0,0,0,-45,0,0,3,0
3754.4,Coasting,,,,,,,0,-0.23,-1.69,249.53,98781.54,39.03,-761064384,389985920,-16.01,19.96,-9.97,-12.91,116.37,8,0,-0.23,-1.69,15.06,159.75,29.31,34.75,36.19,5.25,-0.03,0.3,0.7,-0.65,-99.88,20.21,151.02,0,0,0,-45,0,0,3,0
3754.41,Coasting,,,,,,,0,-0.03,-1.58,249.53,98781.54,39.03,-761064384,389985920,-16.01,19.96,-9.97,-12.91,116.37,8,0.4,-0.03,-1.58,14.44,162.38,28.56,34.75,36.19,5.25,-0.04,0.31,0.7,-0.64,-100.33,20.19,149.31,0,0,0,-45,0,0,3,1
3754.42,Coasting,,,,,,,0,-0.09,-1.51,261.07,98645.72,38.76,-761064384,389985920,-16.01,19.96,-9.97,-12.91,116.37,8,0.61,-0.09,-1.51,14.88,165.56,24.75,34.75,36.19,5.25,-0.05,0.32,0.7,-0.64,-100.78,20.13,147.59,0,0,0,-45,0,0,3,1
3754.43,Coasting,,,,,,,0,0.17,-2.01,261.07,98645.72,38.76,-761064384,389985920,-16.01,19.96,-9.97,-12.91,116.37,8,0.43,0.17,-2.01,14.88,165.56,24.75,34.75,36.19,5.25,-0.05,0.33,0.7,-0.64,-101.23,20.05,145.85,0,0,0,-45,0,0,3,1
3754.44,Coasting,,,,,,,0,0.25,-2.05,261.07,98645.72,38.76,-761062656,389985792,-14.29,34.62,-10.74,-11.18,95.61,11,0.37,0.25,-2.05,15.62,166.62,23.81,35.88,37,8.38,-0.05,0.33,0.7,-0.64,-101.23,20.05,145.85,0,0,0,-45,0,0,3,1
3754.56,Coasting,,,,,,,0,0.01,-2.25,273.24,98502.66,39.02,-761062656,389985792,-14.29,34.62,-10.74,-11.18,95.61,11,0.33,0.01,-2.25,16.88,174.19,19.62,33.19,37.38,17.5,-0.17,0.46,0.65,-0.58,-106.38,17.55,123.13,0,0,0,-45,0,0,3,1
3754.57,Coasting,,,,,,,0,0.21,-2.23,273.24,98502.66,39.02,-761062656,389985792,-14.29,34.62,-10.74,-11.18,95.61,11,0.38,0.21,-2.23,16.75,174.25,19.31,33.19,37.38,17.5,-0.18,0.47,0.65,-0.57,-106.74,17.25,121.38,0,0,0,-45,0,0,3,1
3754.58,Coasting,,,,,,,0,0.24,-2.3,273.24,98502.66,39.02,-761062656,389985792,-14.29,34.62,-10.74,-11.18,95.61,11,0.41,0.24,-2.3,16.75,174.25,19.31,33.19,37.38,17.5,-0.19,0.48,0.64,-0.57,-107.09,16.94,119.63,0,0,0,-45,0,0,3,1
3754.59,Coasting,,,,,,,0,0.44,-2.31,273.24,98502.66,39.02,-761062656,389985792,-14.29,34.62,-10.74,-11.18,95.61,11,0.47,0.44,-2.31,16.56,174.81,18.94,30.88,36.75,22.69,-0.19,0.48,0.64,-0.57,-107.09,16.94,119.63,0,0,0,-45,0,0,3,1
3754.6,Coasting,,,,,,,0,0.5,-2.25,273.24,98502.66,39.02,-761062656,389985792,-14.29,34.62,-10.74,-11.18,95.61,11,0.51,0.5,-2.25,16.56,175.56,18.5,30.88,36.75,22.69,-0.21,0.49,0.63,-0.56,-107.77,16.25,116.13,0,0,0,-45,0,0,3,1
3754.61,Coasting,,,,,,,0,0.63,-2.21,281.2,98406.91,39.04,-761062656,389985792,-14.29,34.62,-10.74,-11.18,95.61,11,0.58,0.63,-2.21,16.94,175.62,18.5,30.88,36.75,22.69,-0.22,0.5,0.63,-0.55,-108.08,15.9,114.38,0,0,0,-45,0,0,3,1
3754.62,Coasting,,,,,,,0,0.35,-2.23,281.2,98409.2,39.04,-761062656,389985792,-14.29,34.62,-10.74,-11.18,95.61,11,0.7,0.35,-2.23,18.06,177.38,18.19,30.88,36.75,22.69,-0.23,0.51,0.62,-0.54,-108.38,15.53,112.63,0,0,0,-45,0,0,3,1
3754.63,Coasting,,,,,,,0,0.37,-2.3,281.2,98409.2,39.04,-761062656,389985792,-14.29,34.62,-10.74,-11.18,95.61,11,0.57,0.37,-2.3,18.06,177.38,18.19,30.88,36.75,22.69,-0.24,0.52,0.62,-0.54,-108.66,15.15,110.89,0,0,0,-45,0,0,3,1
3754.64,Coasting,,,,,,,0,0.22,-2.21,281.2,98409.2,39.04,-761062656,389985792,-14.29,34.62,-10.74,-11.18,95.61,11,0.59,0.22,-2.21,18.12,177,17.88,28.38,36.75,27.19,-0.24,0.52,0.62,-0.54,-108.66,15.15,110.89,0,0,0,-45,0,0,3,1
3754.65,Coasting,,,,,,,0,0.12,-2.21,281.2,98409.2,39.04,-761062656,389985792,-14.29,34.62,-10.74,-11.18,95.61,11,0.68,0.12,-2.21,18.12,176.12,17,28.38,36.75,27.19,-0.26,0.54,0.61,-0.52,-109.19,14.35,107.45,0,0,0,-45,0,0,3,1
,,,,,,,,,,,,,,,,,,,,,,,,,,,,,,,,,,,,,,,,,,,,,
3754.66,Coasting,,,,,,,0,0.21,-2.39,281.2,98409.2,39.04,-761062656,389985792,-14.29,34.62,-10.74,-11.18,95.61,11,0.59,0.21,-2.39,17.44,175.88,16.56,28.38,36.75,27.19,-0.27,0.55,0.6,-0.52,-109.46,13.94,105.73,0,0,0,-45,0,0,3,1
3754.67,Coasting,,,,,,,0,-0.26,-2.28,281.2,98409.2,39.04,-761062656,389985792,-14.29,34.62,-10.74,-11.18,95.61,11,0.63,-0.26,-2.28,14.69,177,15.81,28.38,36.75,27.19,-0.28,0.55,0.6,-0.51,-109.73,13.51,104.02,0,0,0,-45,0,0,3,1
3754.68,Coasting,,,,,,,0,0.01,-2.28,290.05,98305.33,39.04,-761062656,389985792,-14.29,34.62,-10.74,-11.18,95.61,11,0.53,0.01,-2.28,14.69,177,15.81,28.38,36.75,27.19,-0.28,0.56,0.59,-0.5,-109.99,13.06,102.3,0,0,0,-45,0,0,3,1
3754.69,Coasting,,,,,,,0,-0.38,-2.27,290.05,98305.33,39.04,-761062656,389985792,-14.29,34.62,-10.74,-11.18,95.61,11,0.43,-0.38,-2.27,13.81,178.06,15.12,25.38,35.5,29.5,-0.28,0.56,0.59,-0.5,-109.99,13.06,102.3,0,0,0,-45,0,0,3,1
3754.7,Coasting,,,,,,,0,-0.14,-2.28,290.05,98305.33,39.04,-761062656,389985792,-14.29,34.62,-10.74,-11.18,95.61,11,0.52,-0.14,-2.28,13.81,178.19,14.94,25.38,35.5,29.5,-0.3,0.58,0.58,-0.49,-110.47,12.13,98.88,0,0,0,-45,0,0,3,1
3754.71,Coasting,,,,,,,0,0.04,-2.2,290.05,98305.33,39.04,-761062656,389985792,-14.29,34.62,-10.74,-11.18,95.61,11,0.78,0.04,-2.2,13.44,178.62,14.69,25.38,35.5,29.5,-0.31,0.58,0.58,-0.48,-110.69,11.66,97.18,0,0,0,-45,0,0,3,1
3754.72,Coasting,,,,,,,0,0.09,-2.11,290.05,98305.33,39.04,-761062656,389985792,-14.29,34.62,-10.74,-11.18,95.61,11,0.97,0.09,-2.11,13.31,177.62,14.94,25.38,35.5,29.5,-0.32,0.59,0.57,-0.47,-110.89,11.18,95.49,0,0,0,-45,0,0,3,1
3754.73,Coasting,,,,,,,0,0.34,-2.17,290.05,98305.33,39.04,-761062656,389985792,-14.29,34.62,-10.74,-11.18,95.61,11,0.83,0.34,-2.17,13.31,177.62,14.94,25.38,35.5,29.5,-0.33,0.6,0.56,-0.46,-111.09,10.71,93.8,0,0,0,-45,0,0,3,1
3754.74,Coasting,,,,,,,0,0.49,-2.16,297.45,98305.33,39.04,-761062656,389985792,-14.29,34.62,-10.74,-11.18,95.61,11,0.99,0.49,-2.16,13.5,177.19,15.5,21.25,35.06,32.38,-0.33,0.6,0.56,-0.46,-111.09,10.71,93.8,0,0,0,-45,0,0,3,1
3754.75,Coasting,,,,,,,0,0.43,-2.19,297.45,98218.58,39.04,-761062656,389985792,-14.29,34.62,-10.74,-11.18,95.61,11,0.9,0.43,-2.19,13.44,176.62,15.81,21.25,35.06,32.38,-0.35,0.61,0.55,-0.45,-111.43,9.76,90.45,0,0,0,-45,0,0,3,1
3754.76,Coasting,,,,,,,0,0.19,-2.24,297.45,98218.58,39.04,-761062656,389985792,-14.29,34.62,-10.74,-11.18,95.61,11,0.72,0.19,-2.24,12.75,176.56,16.38,21.25,35.06,32.38,-0.35,0.62,0.54,-0.44,-111.59,9.29,88.78,0,0,0,-45,0,0,3,1
3754.77,Coasting,,,,,,,0,0.42,-2.16,297.45,98218.58,39.04,-761062656,389985792,-14.29,34.62,-10.74,-11.18,95.61,11,0.7,0.42,-2.16,12.06,175.94,17.62,21.25,35.06,32.38,-0.36,0.63,0.54,-0.43,-111.73,8.82,87.11,0,0,0,-45,0,0,3,1
3754.78,Coasting,,,,,,,0,0.08,-2.19,297.45,98218.58,39.04,-761062656,389985792,-14.29,34.62,-10.74,-11.18,95.61,11,0.87,0.08,-2.19,12.06,175.94,17.62,21.25,35.06,32.38,-0.37,0.63,0.53,-0.42,-111.86,8.35,85.45,0,0,0,-45,0,0,3,1
3754.79,Coasting,,,,,,,0,0.15,-2.21,297.45,98218.58,39.04,-761062656,389985792,-14.29,34.62,-10.74,-11.18,95.61,11,0.82,0.15,-2.21,11.69,175.81,17.62,16.75,35.69,33.06,-0.37,0.63,0.53,-0.42,-111.86,8.35,85.45,0,0,0,-45,0,0,3,1
3754.8,Coasting,,,,,,,0,0.11,-2.24,297.45,98218.58,39.04,-761062656,389985792,-14.29,34.62,-10.74,-11.18,95.61,11,0.98,0.11,-2.24,11.12,175.38,17.5,16.75,35.69,33.06,-0.39,0.65,0.52,-0.41,-112.1,7.39,82.14,0,0,0,-45,0,0,3,1
